[{"osmType":"relation","osmId":1301223,"name":"Abama Golf","city":"Adeje","region":null,"lat":28.16973,"lon":-16.79042},{"osmType":"way","osmId":54753992,"name":"Academia de Golf de Lisboa","city":null,"region":null,"lat":38.75487,"lon":-9.16494},{"osmType":"node","osmId":12015146026,"name":"Aguilón Golf","city":"Alemria","region":null,"lat":37.3618,"lon":-1.7097},{"osmType":"relation","osmId":4524931,"name":"Alamos Golf Course","city":"Portimão","region":null,"lat":37.203,"lon":-8.5683},{"osmType":"way","osmId":291682603,"name":"Alcadeisa Links","city":null,"region":null,"lat":36.2422,"lon":-5.30991},{"osmType":"relation","osmId":3873410,"name":"Alcaidesa Links Golf Resort","city":"San Roque","region":null,"lat":36.24353,"lon":-5.32072},{"osmType":"way","osmId":234588992,"name":"Aldama Golf Pitch & Putt","city":"Quintana","region":null,"lat":43.41985,"lon":-4.84711},{"osmType":"node","osmId":2181030956,"name":"Aldeamayor Club de Golf","city":"Aldeamayor de San Martín","region":null,"lat":41.50778,"lon":-4.68169},{"osmType":"relation","osmId":3300452,"name":"Alferini Golf","city":"Marbella","region":null,"lat":36.49123,"lon":-5.04838},{"osmType":"way","osmId":106911686,"name":"Algarve Golf Acadamy (Driving Range)","city":"Vale Pedras,Albufeira","region":null,"lat":37.10443,"lon":-8.23849},{"osmType":"relation","osmId":3308783,"name":"Alhaurin Golf","city":"Alhaurín el Grande","region":null,"lat":36.60797,"lon":-4.7053},{"osmType":"relation","osmId":3198971,"name":"Almenara Golf Resort","city":"San Roque","region":null,"lat":36.27561,"lon":-5.34595},{"osmType":"way","osmId":93522323,"name":"Altea Club de Golf","city":"Altea la Vella","region":null,"lat":38.63161,"lon":-0.0336},{"osmType":"relation","osmId":2586907,"name":"Amarilla Golf","city":null,"region":null,"lat":28.0282,"lon":-16.61677},{"osmType":"relation","osmId":17880819,"name":"Amendoeira Golf Resort - Faldo & O'Connor Jnr.","city":"Alcantarilha","region":null,"lat":37.15328,"lon":-8.36102},{"osmType":"way","osmId":396576418,"name":"Ammaia Clube Golfe Marvâo","city":null,"region":null,"lat":39.384,"lon":-7.39281},{"osmType":"way","osmId":437040736,"name":"Anfi Tauro Golf","city":null,"region":null,"lat":27.80309,"lon":-15.72169},{"osmType":"way","osmId":437179671,"name":"Anfi Tauro Golf Academy & Par 3 Course","city":null,"region":null,"lat":27.79976,"lon":-15.71183},{"osmType":"relation","osmId":3300116,"name":"Antequera Golf","city":"Antequera","region":null,"lat":37.01841,"lon":-4.59969},{"osmType":"relation","osmId":3310202,"name":"Añoreta Golf","city":"Rincón de la Victoria","region":null,"lat":36.72335,"lon":-4.24174},{"osmType":"way","osmId":805489807,"name":"arboleda","city":null,"region":null,"lat":38.91136,"lon":1.42431},{"osmType":"way","osmId":631134701,"name":"Arcos Gardens Golf Club","city":null,"region":null,"lat":36.72546,"lon":-5.75335},{"osmType":"way","osmId":255238604,"name":"Arcosur Golf","city":null,"region":null,"lat":41.62406,"lon":-0.94624},{"osmType":"way","osmId":288514499,"name":"Are y Sem","city":null,"region":null,"lat":42.57122,"lon":3.02557},{"osmType":"way","osmId":256611202,"name":"Asilah Marina Golf","city":null,"region":null,"lat":35.44325,"lon":-6.05082},{"osmType":"way","osmId":231088313,"name":"Asociación de Golf Villa de El Escorial","city":"El Escorial","region":null,"lat":40.55256,"lon":-4.11804},{"osmType":"relation","osmId":3300476,"name":"Atalaya Golf & Country Club","city":"Estepona","region":null,"lat":36.4879,"lon":-5.02248},{"osmType":"relation","osmId":3330805,"name":"Augusta Golf Calatayud","city":"Calatayud","region":null,"lat":41.31758,"lon":-1.67684},{"osmType":"way","osmId":240183834,"name":"Axis Golfe Ponte de Lima","city":"Fornelos, Ponte de Lima","region":null,"lat":41.74939,"lon":-8.57093},{"osmType":"way","osmId":1155438103,"name":"Azata Golf","city":null,"region":null,"lat":36.42447,"lon":-5.20189},{"osmType":"relation","osmId":3238152,"name":"Balaia Golf Village Par 3 Course","city":"Albufeira","region":null,"lat":37.09704,"lon":-8.20743},{"osmType":"way","osmId":148974487,"name":"Balneario de Mondariz Golf Club","city":null,"region":null,"lat":42.22398,"lon":-8.49123},{"osmType":"way","osmId":1517049151,"name":"Barbanza Golf","city":null,"region":null,"lat":42.71655,"lon":-8.87708},{"osmType":"way","osmId":319147500,"name":"Barceló Montecastillo Golf","city":null,"region":null,"lat":36.7019,"lon":-6.03549},{"osmType":"way","osmId":240146249,"name":"Belas Clube Campo Golf Course","city":"Sintra","region":null,"lat":38.80882,"lon":-9.27712},{"osmType":"way","osmId":1384458717,"name":"Beloura Pestana Golf","city":"Quinta da Beloura I","region":null,"lat":38.76552,"lon":-9.37061},{"osmType":"way","osmId":976038708,"name":"Benalup","city":null,"region":null,"lat":36.33777,"lon":-5.82446},{"osmType":"way","osmId":435219010,"name":"Benamor Golf","city":"Tavira","region":null,"lat":37.15154,"lon":-7.60863},{"osmType":"relation","osmId":3301393,"name":"Bil Bil Pitch & Putt","city":"Benalmádena","region":null,"lat":36.59523,"lon":-4.55304},{"osmType":"relation","osmId":2168122,"name":"Boavista Golf Resort","city":"Lagos","region":null,"lat":37.09742,"lon":-8.70975},{"osmType":"way","osmId":231355342,"name":"BonÀrea Golf Pitch & Putt","city":"Massoteres","region":null,"lat":41.81025,"lon":1.31862},{"osmType":"relation","osmId":3324419,"name":"Bonmont Golf Course","city":null,"region":null,"lat":41.03893,"lon":0.92069},{"osmType":"relation","osmId":10117316,"name":"Botado Golf Course","city":"Peniche","region":null,"lat":39.33177,"lon":-9.35464},{"osmType":"relation","osmId":4523109,"name":"Buenavista Golf","city":null,"region":null,"lat":28.37235,"lon":-16.86362},{"osmType":"way","osmId":81767316,"name":"Cabanillas Golf Club","city":"Cabanillas del Campo","region":null,"lat":40.65522,"lon":-3.24584},{"osmType":"way","osmId":176253954,"name":"Cabo Negro Royal Golf Club","city":null,"region":null,"lat":35.65209,"lon":-5.28777},{"osmType":"way","osmId":172434912,"name":"Cabopino golf","city":"Marbella","region":null,"lat":36.49474,"lon":-4.74237},{"osmType":"relation","osmId":16378288,"name":"Calanova Golf Club","city":"La Cala de Mijas Costa","region":null,"lat":36.51244,"lon":-4.70529},{"osmType":"way","osmId":170984725,"name":"Campo América","city":null,"region":null,"lat":36.54083,"lon":-4.72767},{"osmType":"way","osmId":343672934,"name":"Campo Asia","city":null,"region":null,"lat":36.53966,"lon":-4.71691},{"osmType":"way","osmId":56205383,"name":"Campo de Golf Abra del Pas Celia Martín","city":null,"region":null,"lat":43.43986,"lon":-3.95838},{"osmType":"way","osmId":289953507,"name":"Campo de Golf Balneario das Augas Santas","city":null,"region":null,"lat":42.51114,"lon":-7.59929},{"osmType":"way","osmId":52868185,"name":"Campo de Golf Campano","city":null,"region":null,"lat":36.3527,"lon":-6.10957},{"osmType":"way","osmId":188694814,"name":"Campo de Golf Campomar","city":null,"region":null,"lat":43.55831,"lon":-8.21207},{"osmType":"way","osmId":1435536213,"name":"Campo de Golf Cierro Grande","city":null,"region":null,"lat":43.549,"lon":-6.95127},{"osmType":"way","osmId":965983888,"name":"Campo de Golf Cinco Villas","city":null,"region":null,"lat":42.3457,"lon":-1.02415},{"osmType":"way","osmId":1208445686,"name":"Campo de Golf Club Deportivo Somontes","city":null,"region":null,"lat":40.49431,"lon":-3.75775},{"osmType":"way","osmId":217214994,"name":"Campo de Golf da Torre de Hércules","city":null,"region":null,"lat":43.38455,"lon":-8.3989},{"osmType":"way","osmId":162854797,"name":"Campo de Golf da Zapateira","city":null,"region":null,"lat":43.30179,"lon":-8.42208},{"osmType":"way","osmId":1435754383,"name":"Campo de Golf de Castropol","city":null,"region":null,"lat":43.53566,"lon":-6.95423},{"osmType":"way","osmId":220509758,"name":"Campo de Golf de la Ciudad Autónoma de Melilla","city":null,"region":null,"lat":35.28945,"lon":-2.9639},{"osmType":"way","osmId":44890650,"name":"Campo de Golf de las Caldas","city":null,"region":null,"lat":43.32738,"lon":-5.91398},{"osmType":"way","osmId":69995736,"name":"Campo de golf de Nestares","city":null,"region":null,"lat":42.98866,"lon":-4.15983},{"osmType":"way","osmId":488915399,"name":"Campo de Golf de Pineda","city":null,"region":null,"lat":37.35009,"lon":-5.96496},{"osmType":"way","osmId":88347070,"name":"Campo de Golf de Salamanca","city":null,"region":null,"lat":41.01711,"lon":-5.8451},{"osmType":"way","osmId":64014198,"name":"Campo de Golf de San Miguel del Camino","city":null,"region":null,"lat":42.56596,"lon":-5.73854},{"osmType":"way","osmId":1032802867,"name":"Campo de Golf de Villarrín","city":null,"region":null,"lat":41.78678,"lon":-5.64295},{"osmType":"way","osmId":1036352660,"name":"Campo de Golf de Xaz","city":null,"region":null,"lat":43.3464,"lon":-8.32325},{"osmType":"way","osmId":27231448,"name":"Campo de Golf de Zuasti","city":"Zuasti","region":null,"lat":42.85312,"lon":-1.74254},{"osmType":"way","osmId":225046353,"name":"Campo de Golf El Estudiante","city":null,"region":null,"lat":40.52123,"lon":-3.59602},{"osmType":"way","osmId":203307740,"name":"Campo de Golf El Robledal","city":null,"region":null,"lat":40.44205,"lon":-3.27221},{"osmType":"way","osmId":180595723,"name":"Campo de Golf Isla Canela Links by Isla Canela","city":"Urbanización Puente Esuri, Ayamonte","region":null,"lat":37.25964,"lon":-7.41928},{"osmType":"way","osmId":1137630691,"name":"Campo de Golf La Cerrallana","city":"Béjar","region":null,"lat":40.394,"lon":-5.75134},{"osmType":"way","osmId":129367423,"name":"Campo de Golf La Morgal","city":null,"region":null,"lat":43.42704,"lon":-5.82753},{"osmType":"way","osmId":95863856,"name":"Campo de Golf La Rosaleda","city":null,"region":null,"lat":28.40887,"lon":-16.52569},{"osmType":"way","osmId":152345709,"name":"Campo de Golf Las Pinaíllas","city":null,"region":null,"lat":39.15936,"lon":-1.81893},{"osmType":"relation","osmId":3332693,"name":"Campo de Golf Los Ángeles de San Rafael","city":"Los Ángeles de San Rafael","region":null,"lat":40.78114,"lon":-4.24822},{"osmType":"way","osmId":25581892,"name":"Campo de Golf Meis","city":"Meis","region":null,"lat":42.46689,"lon":-8.7157},{"osmType":"way","osmId":281634367,"name":"Campo de Golf Miguel Ángel Jiménez","city":"Torremolinos","region":null,"lat":36.63618,"lon":-4.49627},{"osmType":"way","osmId":1366385399,"name":"Campo de golf Navagrulla","city":null,"region":null,"lat":41.846,"lon":-3.08401},{"osmType":"way","osmId":377110060,"name":"Campo de Golf Río Cabe","city":null,"region":null,"lat":42.55111,"lon":-7.50725},{"osmType":"relation","osmId":3299743,"name":"Campo de Golf Río Real","city":"Marbella","region":null,"lat":36.50979,"lon":-4.84406},{"osmType":"way","osmId":169012698,"name":"Campo de Golf Rovacías","city":null,"region":null,"lat":43.38266,"lon":-4.28192},{"osmType":"relation","osmId":4452244,"name":"Campo de Golf San Rafael (Club de Golf Tomelloso)","city":null,"region":null,"lat":39.09205,"lon":-2.89584},{"osmType":"way","osmId":29254617,"name":"Campo de Golf Santander","city":null,"region":null,"lat":40.39178,"lon":-3.86473},{"osmType":"way","osmId":881677881,"name":"Campo de Golf Valdemazo","city":null,"region":null,"lat":41.22329,"lon":-3.90164},{"osmType":"way","osmId":1278159609,"name":"Campo de golf Villa de Cuéllar","city":null,"region":null,"lat":41.38027,"lon":-4.26191},{"osmType":"node","osmId":11954359583,"name":"Campo de Golf Villahabibi","city":"Villanueva del Árbol","region":null,"lat":42.66335,"lon":-5.537},{"osmType":"way","osmId":1472981400,"name":"Campo de Golf y Escuela Las Rejas Benidorm Sol de Poniente","city":null,"region":null,"lat":38.54381,"lon":-0.15119},{"osmType":"way","osmId":185289214,"name":"Campo de Golfe da Curia","city":"Curia, Anadia","region":null,"lat":40.42154,"lon":-8.45967},{"osmType":"way","osmId":108565624,"name":"Campo de Golfe de Miramar","city":"Arcozelo, Vila Nova de Gaia","region":null,"lat":41.06254,"lon":-8.6548},{"osmType":"way","osmId":116515588,"name":"Campo de Golfe do Montado","city":"Algeruz, Palmela","region":null,"lat":38.56696,"lon":-8.80596},{"osmType":"way","osmId":343929311,"name":"Campo de Práticas de Golfe (Driving Range)","city":null,"region":null,"lat":41.45151,"lon":-8.28913},{"osmType":"way","osmId":123009371,"name":"Campo de roda golf","city":null,"region":null,"lat":37.77109,"lon":-0.85094},{"osmType":"way","osmId":170989070,"name":"Campo Europa","city":null,"region":null,"lat":36.54601,"lon":-4.72304},{"osmType":"way","osmId":28530345,"name":"Campo Los Lagos","city":null,"region":null,"lat":28.10727,"lon":-16.74894},{"osmType":"way","osmId":244709315,"name":"Campo Los Olivos","city":null,"region":null,"lat":36.55338,"lon":-4.67238},{"osmType":"relation","osmId":917882,"name":"Campo Municipal de Golf de Las Caldas","city":null,"region":null,"lat":43.32911,"lon":-5.91277},{"osmType":"way","osmId":834733576,"name":"Campo Municipal de Golf El Castillejo","city":null,"region":null,"lat":40.34835,"lon":-0.70556},{"osmType":"relation","osmId":1531451,"name":"Campo Municipal de Golf El Tragamón","city":"Gijón/Xixón","region":null,"lat":43.52034,"lon":-5.6267},{"osmType":"node","osmId":5316647606,"name":"Campo Municipal de Golf Galisteo","city":null,"region":null,"lat":40.00577,"lon":-6.28237},{"osmType":"relation","osmId":3326197,"name":"Campo Municipal de Golf Isla Dos Aguas","city":"Palencia","region":null,"lat":41.99969,"lon":-4.53506},{"osmType":"way","osmId":21112883,"name":"Campo Municipal La Llorea","city":null,"region":null,"lat":43.52059,"lon":-5.57654},{"osmType":"way","osmId":28530242,"name":"Campo Prácticas","city":null,"region":null,"lat":28.11221,"lon":-16.74692},{"osmType":"way","osmId":39195984,"name":"Camposol Golf Club","city":"Mazarrón","region":null,"lat":37.66612,"lon":-1.35191},{"osmType":"way","osmId":123335708,"name":"Can Cuiàs Golf","city":null,"region":null,"lat":41.39608,"lon":2.0448},{"osmType":"relation","osmId":18628646,"name":"Can Rafel 9 forats","city":null,"region":null,"lat":41.40679,"lon":1.93153},{"osmType":"way","osmId":163802870,"name":"Capdepera","city":"Artá","region":null,"lat":39.69929,"lon":3.39809},{"osmType":"way","osmId":114329078,"name":"Castell de Godmar Pitch & Putt","city":"Badalona","region":null,"lat":41.47344,"lon":2.24493},{"osmType":"way","osmId":107214899,"name":"Castro Marim Golf & Country Club","city":"Castro Marim","region":null,"lat":37.2382,"lon":-7.46699},{"osmType":"way","osmId":223261702,"name":"Centre de Golf El Vendrell","city":null,"region":null,"lat":41.20442,"lon":1.55009},{"osmType":"way","osmId":104487804,"name":"Centro de Golf Los Palos","city":"Guaza, Arona","region":null,"lat":28.03729,"lon":-16.6813},{"osmType":"way","osmId":30727898,"name":"Centro de Tecnificacion de Golf Pitch & Putt","city":"Madrid","region":null,"lat":40.46707,"lon":-3.75231},{"osmType":"way","osmId":49167468,"name":"Centro Nacional de Formação do Jamor","city":"Cruz Quebrada","region":null,"lat":38.71345,"lon":-9.254},{"osmType":"way","osmId":30750432,"name":"Centro Nacional de Golf de la Real Federación Española de Golf","city":null,"region":null,"lat":40.48701,"lon":-3.7375},{"osmType":"way","osmId":172433462,"name":"Cerrado del Aguila Golf","city":"Mijas-Costa","region":null,"lat":36.52568,"lon":-4.66305},{"osmType":"way","osmId":552226243,"name":"Citygolf","city":"Senhora da Hora","region":null,"lat":41.18549,"lon":-8.63868},{"osmType":"relation","osmId":10340597,"name":"Club Artxanda Golf","city":null,"region":null,"lat":43.24836,"lon":-2.83377},{"osmType":"way","osmId":365524297,"name":"Club de Campo Mediterráneo","city":null,"region":null,"lat":40.0335,"lon":-0.05509},{"osmType":"relation","osmId":14612,"name":"Club de Campo Villa de Madrid","city":null,"region":null,"lat":40.44799,"lon":-3.74544},{"osmType":"way","osmId":28307854,"name":"Club de Campo y Deportes Golf Scratch","city":"San Sebastián de Los Reyes","region":null,"lat":40.56967,"lon":-3.60612},{"osmType":"way","osmId":435455533,"name":"Club de Golf \"Hato Verde\"","city":null,"region":null,"lat":37.56354,"lon":-6.09519},{"osmType":"way","osmId":40755710,"name":"Club de Golf Alcanada","city":null,"region":null,"lat":39.84368,"lon":3.1695},{"osmType":"way","osmId":25484741,"name":"Club de Golf Alenda","city":null,"region":null,"lat":38.35722,"lon":-0.67241},{"osmType":"relation","osmId":3310307,"name":"Club de Golf Alicante","city":"Playa de San Juan","region":null,"lat":38.37741,"lon":-0.42679},{"osmType":"relation","osmId":1402560,"name":"Club de Golf Aloha","city":"Marbella","region":null,"lat":36.51157,"lon":-4.96094},{"osmType":"relation","osmId":3333320,"name":"Club de Golf Altorreal","city":"Molina de Segura","region":null,"lat":38.07207,"lon":-1.17325},{"osmType":"way","osmId":1118501733,"name":"Club de Golf Aranjuez","city":null,"region":null,"lat":40.04057,"lon":-3.56794},{"osmType":"way","osmId":500682237,"name":"Club de Golf Artxanda","city":null,"region":null,"lat":43.25263,"lon":-2.82345},{"osmType":"way","osmId":158456362,"name":"Club de Golf Balneario de Guitiriz","city":null,"region":null,"lat":43.17228,"lon":-7.88274},{"osmType":"way","osmId":229521358,"name":"Club de Golf Bellavista","city":"Aljaraque","region":null,"lat":37.28456,"lon":-7.01362},{"osmType":"way","osmId":25703162,"name":"Club de Golf Bonalba","city":null,"region":null,"lat":38.44394,"lon":-0.43538},{"osmType":"relation","osmId":8399069,"name":"Club de Golf Camprodon","city":"Camprodon","region":null,"lat":42.31221,"lon":2.38225},{"osmType":"relation","osmId":7146763,"name":"Club de Golf Castellterçol","city":null,"region":null,"lat":41.75555,"lon":2.12677},{"osmType":"node","osmId":2167551989,"name":"Club de Golf Corta Atalaya","city":"Minas de Riotinto","region":null,"lat":37.69772,"lon":-6.60573},{"osmType":"relation","osmId":12163828,"name":"Club de Golf Costa de Azahar","city":null,"region":null,"lat":39.98777,"lon":0.02167},{"osmType":"way","osmId":268412621,"name":"Club de Golf Costa Dorada","city":null,"region":null,"lat":41.15156,"lon":1.32248},{"osmType":"way","osmId":175353572,"name":"Club de Golf de Castiello","city":null,"region":null,"lat":43.50215,"lon":-5.6376},{"osmType":"way","osmId":175483665,"name":"Club de Golf de Guadalhorce","city":"Málaga","region":null,"lat":36.69937,"lon":-4.52879},{"osmType":"way","osmId":34908901,"name":"Club de Golf de la Base Aérea de Torrejón de Ardoz","city":null,"region":null,"lat":40.4843,"lon":-3.42376},{"osmType":"relation","osmId":20242343,"name":"Club de Golf de Manises","city":null,"region":null,"lat":39.49607,"lon":-0.48848},{"osmType":"way","osmId":78089968,"name":"Club de Golf de Miño","city":null,"region":null,"lat":43.37681,"lon":-8.18835},{"osmType":"relation","osmId":3330816,"name":"Club de Golf de Sant Cugat","city":"Sant Cugat del Vallès","region":null,"lat":41.46274,"lon":2.079},{"osmType":"relation","osmId":14718066,"name":"Club de Golf de Torre-Pacheco","city":null,"region":null,"lat":37.73958,"lon":-0.95944},{"osmType":"way","osmId":286456967,"name":"Club de Golf El Bierzo","city":"Congosto","region":null,"lat":42.58989,"lon":-6.53933},{"osmType":"way","osmId":191040049,"name":"Club de Golf El Bosque","city":null,"region":null,"lat":39.45051,"lon":-0.62692},{"osmType":"relation","osmId":8238880,"name":"Club de Golf El Candado","city":null,"region":null,"lat":36.71962,"lon":-4.34142},{"osmType":"way","osmId":188317272,"name":"Club de Golf El Coto de la Serena","city":"Estepona","region":null,"lat":36.4561,"lon":-5.06805},{"osmType":"way","osmId":191554162,"name":"Club de Golf El Espinar","city":"El Espinar","region":null,"lat":40.70207,"lon":-4.33212},{"osmType":"way","osmId":319193250,"name":"Club de Golf El Pilar-Sarria","city":null,"region":null,"lat":42.77083,"lon":-7.39233},{"osmType":"way","osmId":25035117,"name":"Club de Golf El Plantío","city":"Alacant / Alicante","region":null,"lat":38.31111,"lon":-0.54448},{"osmType":"way","osmId":48876790,"name":"Club de Golf Escorpión","city":null,"region":null,"lat":39.57054,"lon":-0.47463},{"osmType":"way","osmId":23927323,"name":"Club de Golf Ifach","city":"Benissa","region":null,"lat":38.68545,"lon":0.10383},{"osmType":"relation","osmId":3324029,"name":"Club de Golf Jardín de Aranjuez","city":"Aranjuez","region":null,"lat":40.05982,"lon":-3.5965},{"osmType":"way","osmId":23854584,"name":"Club de Golf Jávea","city":"Jávea/Xàbia","region":null,"lat":38.74506,"lon":0.15018},{"osmType":"way","osmId":105294806,"name":"Club de Golf La Cañada","city":"Guadiaro, San Roque","region":null,"lat":36.29483,"lon":-5.31196},{"osmType":"way","osmId":41479660,"name":"Club de Golf La Cuesta Llanes","city":"Llanes","region":null,"lat":43.40771,"lon":-4.73077},{"osmType":"way","osmId":24767877,"name":"Club de Golf La Dehesa","city":"Villanueva de la Cañada","region":null,"lat":40.45464,"lon":-3.98273},{"osmType":"way","osmId":27597549,"name":"Club de Golf La Finca","city":null,"region":null,"lat":38.06249,"lon":-0.79333},{"osmType":"node","osmId":3043908803,"name":"Club de Golf La Garza","city":"Linares","region":null,"lat":38.14555,"lon":-3.61187},{"osmType":"way","osmId":223260889,"name":"Club de Golf La Graiera-Calafell","city":null,"region":null,"lat":41.22421,"lon":1.58071},{"osmType":"way","osmId":1373119713,"name":"Club de Golf La Mola","city":null,"region":null,"lat":41.59704,"lon":2.03187},{"osmType":"way","osmId":216613583,"name":"Club de Golf La Moraleja","city":null,"region":null,"lat":40.60221,"lon":-3.56724},{"osmType":"way","osmId":38012566,"name":"Club de Golf La Peñaza","city":"Zaragoza","region":null,"lat":41.62643,"lon":-1.02745},{"osmType":"relation","osmId":10264875,"name":"Club de Golf La Roqueta","city":null,"region":null,"lat":41.68684,"lon":1.8355},{"osmType":"way","osmId":220559456,"name":"Club de Golf Las Llanás","city":"Grajera","region":null,"lat":41.37903,"lon":-3.6176},{"osmType":"way","osmId":27249484,"name":"Club de Golf Las Ramblas de Orihuela","city":null,"region":null,"lat":37.91938,"lon":-0.77473},{"osmType":"way","osmId":172545406,"name":"Club de Golf Llavaneres","city":"Sant Andreu de Llavaneres","region":null,"lat":41.56213,"lon":2.48275},{"osmType":"way","osmId":313727699,"name":"Club de Golf Lugo","city":null,"region":null,"lat":42.94142,"lon":-7.55047},{"osmType":"way","osmId":60046149,"name":"Club de Golf Málaga Parador","city":"Málaga","region":null,"lat":36.6542,"lon":-4.47172},{"osmType":"way","osmId":202666092,"name":"Club de Golf Masia Bach","city":null,"region":null,"lat":41.49712,"lon":1.85035},{"osmType":"way","osmId":4924784,"name":"Club de Golf Mataleñas","city":"Santander","region":null,"lat":43.48505,"lon":-3.78652},{"osmType":"relation","osmId":6209591,"name":"Club de Golf Montbrú-Moià","city":null,"region":null,"lat":41.80111,"lon":2.08309},{"osmType":"way","osmId":289501778,"name":"Club de Golf Navaluenga","city":null,"region":null,"lat":40.41287,"lon":-4.68598},{"osmType":"way","osmId":52095387,"name":"Club de Golf Novo Sancti Petri","city":null,"region":null,"lat":36.34932,"lon":-6.15923},{"osmType":"relation","osmId":6370687,"name":"Club de golf Osona - Muntanyà - El Brull","city":null,"region":null,"lat":41.81943,"lon":2.28426},{"osmType":"relation","osmId":2501899,"name":"Club de Golf Playa Serena","city":"Roquetas de Mar","region":null,"lat":36.72409,"lon":-2.63474},{"osmType":"relation","osmId":10704119,"name":"Club de Golf Port del Comte","city":null,"region":null,"lat":42.17575,"lon":1.55209},{"osmType":"way","osmId":249806802,"name":"Club de Golf Pozoblanco","city":null,"region":null,"lat":38.34023,"lon":-4.83513},{"osmType":"way","osmId":91454199,"name":"Club de Golf Ramón Sota","city":"Agüero","region":null,"lat":43.4134,"lon":-3.71545},{"osmType":"way","osmId":53800512,"name":"Club de Golf Ría de Vigo","city":null,"region":null,"lat":42.30259,"lon":-8.68852},{"osmType":"way","osmId":293290633,"name":"Club de Golf Ribera Salada","city":null,"region":null,"lat":42.03415,"lon":1.41926},{"osmType":"way","osmId":1300786429,"name":"Club de Golf Salas de los Infantes","city":null,"region":null,"lat":42.01639,"lon":-3.26312},{"osmType":"way","osmId":490212528,"name":"Club de Golf Sojuela","city":null,"region":null,"lat":42.35471,"lon":-2.54767},{"osmType":"relation","osmId":7257090,"name":"Club de Golf Son Servera","city":null,"region":null,"lat":39.64061,"lon":3.41174},{"osmType":"way","osmId":42116393,"name":"Club de Golf Soria","city":null,"region":null,"lat":41.82892,"lon":-2.59474},{"osmType":"relation","osmId":3344592,"name":"Club de Golf Terramar","city":"Sitges","region":null,"lat":41.22746,"lon":1.7772},{"osmType":"way","osmId":240494826,"name":"Club de Golf Val de Rois","city":null,"region":null,"lat":42.762,"lon":-8.66702},{"osmType":"way","osmId":237391513,"name":"Club de Golf Valderrama","city":"San Roque","region":null,"lat":36.28552,"lon":-5.32989},{"osmType":"relation","osmId":14613034,"name":"Club de Golf Vallromanes","city":"Vallromanes","region":null,"lat":41.52949,"lon":2.2872},{"osmType":"way","osmId":116095002,"name":"Club de Golf Veneziola","city":null,"region":null,"lat":37.77428,"lon":-0.74397},{"osmType":"way","osmId":27249332,"name":"Club de Golf Villamartín","city":null,"region":null,"lat":37.93827,"lon":-0.75969},{"osmType":"way","osmId":182585171,"name":"Club de Golf Villar de Olalla","city":null,"region":null,"lat":40.02132,"lon":-2.17521},{"osmType":"relation","osmId":3330776,"name":"Club de Golf Villarias","city":"Villarias","region":null,"lat":42.92047,"lon":-3.53274},{"osmType":"node","osmId":5084807529,"name":"Club Deportivo Los Canchorrales","city":null,"region":null,"lat":41.09073,"lon":-3.7514},{"osmType":"relation","osmId":3321424,"name":"Club Deportivo Martiartu Pitch & Putt","city":"Erandio","region":null,"lat":43.33932,"lon":-2.96497},{"osmType":"way","osmId":452796537,"name":"Club Derio Golf","city":null,"region":null,"lat":43.29636,"lon":-2.87341},{"osmType":"way","osmId":714986444,"name":"Club Golf Aigüesverds","city":"Reus","region":null,"lat":41.12037,"lon":1.10253},{"osmType":"way","osmId":184632979,"name":"Club Golf d'Aro","city":"Platja d'Aro","region":null,"lat":41.83401,"lon":3.01844},{"osmType":"way","osmId":106911695,"name":"Club Med Da Balaia Academy Pitch & Putt","city":"Albufeira","region":null,"lat":37.09085,"lon":-8.20053},{"osmType":"relation","osmId":3298654,"name":"Club Zaudín Golf","city":"Tomares","region":null,"lat":37.36217,"lon":-6.05887},{"osmType":"way","osmId":195780851,"name":"Clube de Golf A Toxa","city":"O Grove","region":null,"lat":42.49591,"lon":-8.84581},{"osmType":"way","osmId":1382649888,"name":"Clube de Golfe da Quinta da Barca","city":"Gemeses, Esposende","region":null,"lat":41.51591,"lon":-8.74667},{"osmType":"way","osmId":1293941480,"name":"Clube de Golfe de Cantanhede","city":null,"region":null,"lat":40.36167,"lon":-8.60474},{"osmType":"relation","osmId":13000156,"name":"Clube de Golfe de Vidago","city":null,"region":null,"lat":41.62063,"lon":-7.53443},{"osmType":"way","osmId":216995810,"name":"Cofrentes Golf Pitch & Putt","city":"Cofrentes","region":null,"lat":39.23579,"lon":-1.09553},{"osmType":"relation","osmId":1345680,"name":"Colina Verde Golf & Sports Resort Executive Course","city":"Moncarapacho","region":null,"lat":37.08619,"lon":-7.75162},{"osmType":"way","osmId":460903479,"name":"Compact 9 trous","city":null,"region":null,"lat":43.64641,"lon":4.0001},{"osmType":"way","osmId":1113741917,"name":"Compostela Golf","city":"Santiago de Compostela","region":null,"lat":42.9228,"lon":-8.48435},{"osmType":"way","osmId":102682269,"name":"Condado de Alhama","city":null,"region":null,"lat":37.73142,"lon":-1.35853},{"osmType":"way","osmId":258452874,"name":"Cortijo Grande","city":null,"region":null,"lat":37.12335,"lon":-1.93002},{"osmType":"way","osmId":78624987,"name":"Corvera Golf","city":"Corvera","region":null,"lat":37.83657,"lon":-1.17465},{"osmType":"relation","osmId":3302571,"name":"Costa Ballena Ocean Golf Club","city":"Rota","region":null,"lat":36.68281,"lon":-6.4097},{"osmType":"way","osmId":1148778872,"name":"CostaTerra Golf","city":null,"region":null,"lat":38.19234,"lon":-8.76547},{"osmType":"relation","osmId":3301112,"name":"Course A","city":null,"region":null,"lat":36.507,"lon":-4.99673},{"osmType":"relation","osmId":3301113,"name":"Course B","city":null,"region":null,"lat":36.5157,"lon":-4.99907},{"osmType":"way","osmId":253154773,"name":"Desert Springs Golf Club","city":null,"region":null,"lat":37.25793,"lon":-1.82916},{"osmType":"way","osmId":556257235,"name":"Deva Golf Pitch&Putt","city":null,"region":null,"lat":43.50825,"lon":-5.60992},{"osmType":"relation","osmId":5873606,"name":"Dolce CampoReal Lisboa","city":null,"region":null,"lat":39.03191,"lon":-9.24263},{"osmType":"relation","osmId":3209452,"name":"Dom Pedro Laguna Golf Course","city":"Vilamoura","region":null,"lat":37.09309,"lon":-8.13026},{"osmType":"relation","osmId":3238919,"name":"Dom Pedro Millennium Golf Course","city":"Vilamoura","region":null,"lat":37.10423,"lon":-8.13251},{"osmType":"way","osmId":107196460,"name":"Dom Pedro Old Course","city":"Vilamoura","region":null,"lat":37.09945,"lon":-8.11659},{"osmType":"relation","osmId":3209386,"name":"Dom Pedro Pinhal Golf Course","city":"Vilamoura","region":null,"lat":37.08572,"lon":-8.10823},{"osmType":"relation","osmId":1506063,"name":"Dom Pedro Victoria Golf Course","city":"Vilamoura","region":null,"lat":37.10295,"lon":-8.14399},{"osmType":"way","osmId":42289808,"name":"Domaine de Falgos","city":null,"region":null,"lat":42.36636,"lon":2.58094},{"osmType":"way","osmId":202893267,"name":"Domaine Estolosa","city":null,"region":null,"lat":43.56864,"lon":1.60756},{"osmType":"relation","osmId":3296990,"name":"Don Tello Golf","city":"Mérida","region":null,"lat":38.84138,"lon":-6.30742},{"osmType":"relation","osmId":2523808,"name":"Doña Julia Golf Club","city":"Casares","region":null,"lat":36.38813,"lon":-5.2345},{"osmType":"way","osmId":308615627,"name":"Driving Range","city":null,"region":null,"lat":39.3833,"lon":3.24092},{"osmType":"way","osmId":244155660,"name":"Driving Range / German Golf Academy","city":"Marbella","region":null,"lat":36.52401,"lon":-4.99313},{"osmType":"way","osmId":87176802,"name":"E.G Montepríncipe Golf","city":"Molina de Segura","region":null,"lat":38.06694,"lon":-1.15549},{"osmType":"relation","osmId":19230614,"name":"Ecogolf Ariège Pyrénées","city":null,"region":null,"lat":43.02555,"lon":1.46394},{"osmType":"way","osmId":244109824,"name":"El Campanario Golf Course","city":"Estepona","region":null,"lat":36.47509,"lon":-5.02291},{"osmType":"relation","osmId":365264,"name":"El Campo de Logroño","city":"Logroño","region":null,"lat":42.43798,"lon":-2.49903},{"osmType":"way","osmId":172432255,"name":"El Chaparral Golf Club","city":"Mijas Costa","region":null,"lat":36.51352,"lon":-4.6641},{"osmType":"relation","osmId":17005425,"name":"El Cortijo Golf Center","city":null,"region":null,"lat":28.01815,"lon":-15.40545},{"osmType":"way","osmId":183372424,"name":"El Encín Golf","city":"Alcalá de Henares","region":null,"lat":40.52068,"lon":-3.3123},{"osmType":"way","osmId":186098955,"name":"El Higueral Golf","city":"Benahavís","region":null,"lat":36.50168,"lon":-5.02045},{"osmType":"way","osmId":1137630382,"name":"El Maderal","city":null,"region":null,"lat":41.28066,"lon":-5.62007},{"osmType":"way","osmId":147409088,"name":"El Paraíso Golf Club","city":"Estepona","region":null,"lat":36.47541,"lon":-5.03374},{"osmType":"node","osmId":320834796,"name":"El Paraiso Golf Clubhouse","city":null,"region":null,"lat":36.47638,"lon":-5.03506},{"osmType":"way","osmId":170785539,"name":"El Soto Golf","city":null,"region":null,"lat":36.52452,"lon":-4.73978},{"osmType":"relation","osmId":1216562,"name":"El Valle Golf Resort","city":null,"region":null,"lat":37.87607,"lon":-1.08366},{"osmType":"way","osmId":392042540,"name":"El Viso","city":null,"region":null,"lat":43.422,"lon":-6.25608},{"osmType":"relation","osmId":9351449,"name":"Empordà Golf Club","city":null,"region":null,"lat":42.01678,"lon":3.13796},{"osmType":"way","osmId":552248250,"name":"Escuela de Golf de Azadinos","city":null,"region":null,"lat":42.63394,"lon":-5.62381},{"osmType":"way","osmId":219467816,"name":"Escuela de Golf de Miranda de Ebro","city":null,"region":null,"lat":42.64027,"lon":-2.97097},{"osmType":"way","osmId":541614076,"name":"Escuela de golf Elche","city":"Elche","region":null,"lat":38.25635,"lon":-0.71734},{"osmType":"way","osmId":367865578,"name":"Escuela Municipal de Golf","city":null,"region":null,"lat":41.66335,"lon":-4.6751},{"osmType":"way","osmId":55509875,"name":"Escuela Municipal de Golf Los Ángeles de San Rafael","city":null,"region":null,"lat":40.78645,"lon":-4.22708},{"osmType":"relation","osmId":1690176,"name":"Escuela Pública de Golf El Toyo","city":"El Retamar","region":null,"lat":36.84256,"lon":-2.31532},{"osmType":"way","osmId":102882432,"name":"Escuela Pública de Golf La Cartuja","city":"Sevilla","region":null,"lat":37.42357,"lon":-6.00089},{"osmType":"way","osmId":819148754,"name":"Espace Loisirs Saint-Jean-de-Serres","city":null,"region":null,"lat":43.98619,"lon":4.07206},{"osmType":"way","osmId":107214912,"name":"Espiche Golf","city":"Espiche, Lagos","region":null,"lat":37.12277,"lon":-8.75426},{"osmType":"way","osmId":240180470,"name":"Estela Golf Club","city":"Estela, Póvoa de Varzim","region":null,"lat":41.45752,"lon":-8.77595},{"osmType":"way","osmId":244048306,"name":"Estepona Golf","city":"Estepona","region":null,"lat":36.41302,"lon":-5.21223},{"osmType":"relation","osmId":3239244,"name":"Estoril Palácio Golf Course","city":"Estoril","region":null,"lat":38.72124,"lon":-9.39647},{"osmType":"way","osmId":139728265,"name":"Flamingos Golf","city":null,"region":null,"lat":36.47452,"lon":-5.05606},{"osmType":"way","osmId":98854430,"name":"Font del Llop Golf Resort","city":null,"region":null,"lat":38.33528,"lon":-0.70338},{"osmType":"relation","osmId":7566056,"name":"Fontanals Golf","city":"Fontanals de Cerdanya","region":null,"lat":42.39721,"lon":1.87454},{"osmType":"way","osmId":152186589,"name":"Foressos Golf","city":"Picassent","region":null,"lat":39.30707,"lon":-0.43877},{"osmType":"way","osmId":25057302,"name":"Forus Golf Las Rejas","city":"Majadahonda","region":null,"lat":40.44501,"lon":-3.86966},{"osmType":"way","osmId":117331178,"name":"Fuerteventura Golf Club","city":null,"region":null,"lat":28.38878,"lon":-13.87114},{"osmType":"way","osmId":211896748,"name":"Goiburu Golf Club","city":null,"region":null,"lat":43.20217,"lon":-2.02825},{"osmType":"way","osmId":240175899,"name":"Golden Eagle Golf Course","city":"Asseiceira, Rio Maior","region":null,"lat":39.25795,"lon":-8.92056},{"osmType":"way","osmId":472631908,"name":"Golf 9 trous de la résidence du domaine du golf","city":null,"region":null,"lat":43.53964,"lon":3.75448},{"osmType":"way","osmId":222531220,"name":"Golf Academy Albayt Resort","city":"Estepona","region":null,"lat":36.39744,"lon":-5.20508},{"osmType":"relation","osmId":14461588,"name":"Golf Aravell","city":null,"region":null,"lat":42.3615,"lon":1.40934},{"osmType":"way","osmId":167071648,"name":"Golf Benalmadena Pitch& Putt","city":"Benalmádena","region":null,"lat":36.6019,"lon":-4.55771},{"osmType":"way","osmId":142600230,"name":"Golf Can Dragó","city":null,"region":null,"lat":41.43512,"lon":2.18275},{"osmType":"node","osmId":7165888885,"name":"Golf can Sant Joan","city":null,"region":null,"lat":41.4942,"lon":2.05689},{"osmType":"way","osmId":275767012,"name":"Golf Candeleda","city":"Candeleda (Ávila)","region":null,"lat":40.14081,"lon":-5.30669},{"osmType":"relation","osmId":3332769,"name":"Golf Canyamel","city":"Capdepera","region":null,"lat":39.669,"lon":3.43444},{"osmType":"way","osmId":38039200,"name":"Golf Castillo de Gorraiz","city":"Valle de Egües","region":null,"lat":42.817,"lon":-1.57342},{"osmType":"way","osmId":28226111,"name":"Golf Centro Deportivo Barberán","city":"Cuatro Vientos-Madrid","region":null,"lat":40.36881,"lon":-3.79825},{"osmType":"way","osmId":1292405543,"name":"Golf Château de Jumliac","city":null,"region":null,"lat":43.51511,"lon":1.60014},{"osmType":"way","osmId":626635874,"name":"Golf Ciudad Real","city":null,"region":null,"lat":39.04402,"lon":-3.9023},{"osmType":"way","osmId":119559909,"name":"Golf Club de Braga - Driving Range","city":"Palmeira, Braga","region":null,"lat":41.58443,"lon":-8.44545},{"osmType":"relation","osmId":2974115,"name":"Golf Club de Guinlet","city":null,"region":null,"lat":43.90106,"lon":0.11232},{"osmType":"relation","osmId":17187353,"name":"Golf Club Ibiza","city":"Santa Eulàlia","region":null,"lat":38.94757,"lon":1.49724},{"osmType":"way","osmId":180032304,"name":"Golf Club Nimes Campagne","city":null,"region":null,"lat":43.76531,"lon":4.38872},{"osmType":"way","osmId":117329442,"name":"Golf Club Salinas de Antigua","city":null,"region":null,"lat":28.38033,"lon":-13.87232},{"osmType":"way","osmId":186274617,"name":"Golf communal de Font-Romeu","city":null,"region":null,"lat":42.51073,"lon":2.03655},{"osmType":"way","osmId":1394448307,"name":"Golf Compact d'Idron","city":null,"region":null,"lat":43.30471,"lon":-0.29367},{"osmType":"way","osmId":153946662,"name":"Golf Córdoba","city":"Córdoba","region":null,"lat":37.96986,"lon":-4.811},{"osmType":"way","osmId":28530316,"name":"Golf Costa Adeje","city":null,"region":null,"lat":28.11448,"lon":-16.75374},{"osmType":"way","osmId":179183087,"name":"Golf Costa Brava","city":null,"region":null,"lat":41.80796,"lon":2.98779},{"osmType":"way","osmId":1103404084,"name":"Golf Costa Teguise","city":null,"region":null,"lat":29.00225,"lon":-13.52522},{"osmType":"relation","osmId":3323996,"name":"Golf Course Almerimar","city":"El Ejido","region":null,"lat":36.70387,"lon":-2.79276},{"osmType":"relation","osmId":19234969,"name":"Golf d'Arcangues","city":"Arcangues","region":null,"lat":43.43633,"lon":-1.52253},{"osmType":"way","osmId":1312799967,"name":"Golf d'Auch- Embats","city":null,"region":null,"lat":43.65092,"lon":0.53674},{"osmType":"relation","osmId":6454953,"name":"Golf d'Hossegor","city":null,"region":null,"lat":43.65895,"lon":-1.41496},{"osmType":"way","osmId":176306926,"name":"Golf d'Ilbarritz","city":"Bidart","region":null,"lat":43.45813,"lon":-1.57617},{"osmType":"relation","osmId":3319608,"name":"Golf de Andratx","city":"Camp de Mar","region":null,"lat":39.54777,"lon":2.42236},{"osmType":"way","osmId":38864002,"name":"Golf de Béziers Saint-Thomas","city":null,"region":null,"lat":43.37116,"lon":3.33311},{"osmType":"way","osmId":157056661,"name":"Golf de Biarritz le Phare","city":"Biarritz","region":null,"lat":43.49216,"lon":-1.54393},{"osmType":"way","osmId":248285083,"name":"Golf De Caldes","city":"Caldes de Montbui","region":null,"lat":41.65055,"lon":2.17758},{"osmType":"way","osmId":42311596,"name":"Golf de Carcassonne","city":null,"region":null,"lat":43.18722,"lon":2.33509},{"osmType":"way","osmId":101045404,"name":"Golf de Castelnau le Lez","city":"Castelnau-le-Lez","region":null,"lat":43.62441,"lon":3.91779},{"osmType":"way","osmId":39503948,"name":"Golf de Castres Gourjade","city":null,"region":null,"lat":43.61526,"lon":2.25897},{"osmType":"way","osmId":366777740,"name":"Golf de Cazilhac","city":null,"region":null,"lat":43.92415,"lon":3.7137},{"osmType":"way","osmId":427287610,"name":"Golf de Chantaco","city":"Saint-Jean-de-Luz","region":null,"lat":43.37827,"lon":-1.63399},{"osmType":"way","osmId":155267350,"name":"Golf de Chiberta","city":null,"region":null,"lat":43.51288,"lon":-1.52622},{"osmType":"way","osmId":310049135,"name":"Golf de Fleurance","city":null,"region":null,"lat":43.81412,"lon":0.64142},{"osmType":"way","osmId":430408335,"name":"Golf de Florentin -Marssac-sur-Tarn","city":null,"region":null,"lat":43.88958,"lon":2.04571},{"osmType":"way","osmId":234987365,"name":"Golf de Gandia","city":"Gandía-Valencia","region":null,"lat":38.98359,"lon":-0.17327},{"osmType":"way","osmId":41952523,"name":"Golf de Gascogne","city":null,"region":null,"lat":43.39893,"lon":0.5863},{"osmType":"way","osmId":664578688,"name":"Golf de Ginestous","city":null,"region":null,"lat":43.62906,"lon":1.40581},{"osmType":"way","osmId":287147431,"name":"Golf de Guara","city":"Arascués","region":null,"lat":42.25677,"lon":-0.44726},{"osmType":"way","osmId":35995141,"name":"Golf de l'Hippodrome","city":null,"region":null,"lat":43.20148,"lon":0.06838},{"osmType":"way","osmId":714794952,"name":"Golf de la Barouge","city":null,"region":null,"lat":43.50956,"lon":2.38792},{"osmType":"way","osmId":239340332,"name":"Golf de la Bigorre","city":null,"region":null,"lat":43.09198,"lon":0.15073},{"osmType":"relation","osmId":19272175,"name":"Golf de la Grande Motte","city":null,"region":null,"lat":43.57238,"lon":4.09452},{"osmType":"way","osmId":72880901,"name":"Golf de la Nivelle","city":"Ciboure","region":null,"lat":43.37747,"lon":-1.65431},{"osmType":"way","osmId":200924956,"name":"Golf de la Ramée","city":null,"region":null,"lat":43.57347,"lon":1.36154},{"osmType":"relation","osmId":19280890,"name":"Golf de Lamalou-les Bains","city":null,"region":null,"lat":43.58883,"lon":3.09975},{"osmType":"way","osmId":294141206,"name":"Golf de Lannemezan","city":null,"region":null,"lat":43.11194,"lon":0.41702},{"osmType":"way","osmId":205658969,"name":"Golf de Las Martines","city":null,"region":null,"lat":43.63743,"lon":1.10676},{"osmType":"way","osmId":136714695,"name":"Golf de Lasbordes","city":null,"region":null,"lat":43.93715,"lon":2.12092},{"osmType":"relation","osmId":3380569,"name":"Golf de Layos","city":"Layos","region":null,"lat":39.77221,"lon":-4.07579},{"osmType":"relation","osmId":9365213,"name":"Golf de Luchon","city":"Bagnères-de-Luchon","region":null,"lat":42.79197,"lon":0.60282},{"osmType":"way","osmId":122106732,"name":"Golf de Moliets","city":"Moliets-et-Maâ","region":null,"lat":43.84428,"lon":-1.38383},{"osmType":"way","osmId":594770452,"name":"Golf de Mont de Marsan","city":"Saint-Avit","region":null,"lat":43.94253,"lon":-0.42146},{"osmType":"way","osmId":727416203,"name":"Golf de Montescot","city":null,"region":null,"lat":42.62187,"lon":2.92675},{"osmType":"way","osmId":26295220,"name":"Golf de Montpellier Massane","city":null,"region":null,"lat":43.64458,"lon":4.00255},{"osmType":"way","osmId":40924785,"name":"Golf de Nîmes Vacquerolles","city":"Nîmes","region":null,"lat":43.84995,"lon":4.30265},{"osmType":"relation","osmId":3388539,"name":"Golf de Palmola","city":null,"region":null,"lat":43.75155,"lon":1.59971},{"osmType":"way","osmId":168822268,"name":"Golf de Pau-Artiguelouve","city":null,"region":null,"lat":43.32273,"lon":-0.46161},{"osmType":"relation","osmId":303412,"name":"Golf de Pinsolle","city":"Soustons","region":null,"lat":43.77049,"lon":-1.4059},{"osmType":"way","osmId":163218813,"name":"Golf de Saint-Cyprien","city":null,"region":null,"lat":42.63997,"lon":3.01636},{"osmType":"way","osmId":1316168032,"name":"Golf de Salies-de-Béarn","city":null,"region":null,"lat":43.47156,"lon":-0.91457},{"osmType":"relation","osmId":19209609,"name":"Golf de Salies-du-Salat","city":null,"region":null,"lat":43.10717,"lon":0.96715},{"osmType":"relation","osmId":19211216,"name":"Golf de Seignosse","city":null,"region":null,"lat":43.69174,"lon":-1.41379},{"osmType":"relation","osmId":3977168,"name":"Golf de Son Antem","city":null,"region":null,"lat":39.47365,"lon":2.82702},{"osmType":"way","osmId":60140256,"name":"Golf de Son Gual","city":null,"region":null,"lat":39.56614,"lon":2.7995},{"osmType":"way","osmId":51852280,"name":"Golf de Son Muntaner","city":"Palma de Mallorca","region":null,"lat":39.58276,"lon":2.60499},{"osmType":"relation","osmId":1654444,"name":"Golf de Son Quint","city":"Palma de Mallorca","region":null,"lat":39.59553,"lon":2.60313},{"osmType":"way","osmId":81397943,"name":"Golf de Son Térmens","city":null,"region":null,"lat":39.67283,"lon":2.65939},{"osmType":"relation","osmId":1130271,"name":"Golf de Son Vida","city":"Palma de Mallorca","region":null,"lat":39.58793,"lon":2.59432},{"osmType":"way","osmId":298171427,"name":"Golf de Téoula","city":"Plaisance-du-Touch","region":null,"lat":43.5522,"lon":1.2544},{"osmType":"way","osmId":24735988,"name":"Golf de Toulouse - Seilh","city":null,"region":null,"lat":43.68286,"lon":1.35388},{"osmType":"relation","osmId":2832265,"name":"Golf de Vieille Toulouse","city":null,"region":null,"lat":43.53529,"lon":1.43814},{"osmType":"way","osmId":1180046208,"name":"Golf del Club de campo El Tiro","city":null,"region":null,"lat":40.90838,"lon":-4.02133},{"osmType":"way","osmId":234900304,"name":"Golf del Guadiana","city":"Badajoz","region":null,"lat":38.88351,"lon":-6.88681},{"osmType":"relation","osmId":13107306,"name":"Golf del Sur","city":null,"region":null,"lat":28.03417,"lon":-16.60953},{"osmType":"relation","osmId":6292431,"name":"Golf des Étangs de Fiac","city":null,"region":null,"lat":43.67378,"lon":1.93712},{"osmType":"relation","osmId":3911375,"name":"Golf des Tumulus","city":null,"region":null,"lat":43.21145,"lon":0.06795},{"osmType":"way","osmId":375576912,"name":"Golf du Cap","city":null,"region":null,"lat":43.0717,"lon":1.18084},{"osmType":"relation","osmId":13007665,"name":"Golf du Cap d'Agde","city":null,"region":null,"lat":43.29016,"lon":3.49159},{"osmType":"way","osmId":334757365,"name":"Golf du Château de Barbet","city":null,"region":null,"lat":43.46233,"lon":0.87695},{"osmType":"way","osmId":300762872,"name":"Golf du château de Pallanne","city":null,"region":null,"lat":43.49236,"lon":0.26448},{"osmType":"way","osmId":875285179,"name":"Golf du Comminges","city":null,"region":null,"lat":43.07851,"lon":0.56295},{"osmType":"relation","osmId":19271844,"name":"Golf du Pic Saint-Loup","city":"Saint-Gély-du-Fesc","region":null,"lat":43.68864,"lon":3.81893},{"osmType":"way","osmId":72885092,"name":"Golf El Fresnillo","city":"Ávila","region":null,"lat":40.62708,"lon":-4.6485},{"osmType":"relation","osmId":3298747,"name":"Golf El Puerto","city":"El Puerto de Santa María","region":null,"lat":36.62354,"lon":-6.24566},{"osmType":"way","osmId":222133571,"name":"Golf El Rompido - Campo Norte","city":"Cartaya","region":null,"lat":37.23158,"lon":-7.1409},{"osmType":"way","osmId":223150371,"name":"Golf El Rompido - Campo Sur","city":null,"region":null,"lat":37.2235,"lon":-7.13718},{"osmType":"way","osmId":183162314,"name":"Golf Entrepinos","city":"Simancas","region":null,"lat":41.5713,"lon":-4.83807},{"osmType":"way","osmId":172760874,"name":"Golf Epherra - Trous 1 à 9","city":null,"region":null,"lat":43.36679,"lon":-1.48284},{"osmType":"way","osmId":1195205206,"name":"Golf Epherra - Trous 10 à 18","city":null,"region":null,"lat":43.34744,"lon":-1.4768},{"osmType":"way","osmId":245166763,"name":"Golf Escalona (defunct!)","city":"Escalona","region":null,"lat":40.17897,"lon":-4.42276},{"osmType":"way","osmId":283121142,"name":"Golf Isla Valdecañas","city":"El Gordo","region":null,"lat":39.83977,"lon":-5.37125},{"osmType":"way","osmId":110587662,"name":"Golf Jundiz","city":null,"region":null,"lat":42.83173,"lon":-2.75046},{"osmType":"relation","osmId":3299762,"name":"Golf La Dama de Noche","city":"Marbella","region":null,"lat":36.50141,"lon":-4.94846},{"osmType":"way","osmId":729640031,"name":"Golf La Estancia","city":null,"region":null,"lat":36.36832,"lon":-6.12828},{"osmType":"way","osmId":87313937,"name":"Golf La Garriga","city":"La Garriga","region":null,"lat":41.66041,"lon":2.28108},{"osmType":"way","osmId":28348461,"name":"Golf La Moraleja 1","city":"Alcobendas","region":null,"lat":40.51851,"lon":-3.61339},{"osmType":"way","osmId":28348916,"name":"Golf La Moraleja 2","city":"Madrid","region":null,"lat":40.50486,"lon":-3.62435},{"osmType":"node","osmId":7133162556,"name":"Golf La Peñuela","city":null,"region":null,"lat":40.82695,"lon":-3.62107},{"osmType":"relation","osmId":10365099,"name":"Golf la Roca","city":null,"region":null,"lat":41.63071,"lon":2.35133},{"osmType":"relation","osmId":4077462,"name":"Golf las Américas","city":null,"region":null,"lat":28.06238,"lon":-16.72033},{"osmType":"way","osmId":87521371,"name":"Golf Lerma","city":null,"region":null,"lat":41.96661,"lon":-3.78933},{"osmType":"way","osmId":165325419,"name":"Golf Municipal la Lagunilla","city":null,"region":null,"lat":38.94478,"lon":-2.56495},{"osmType":"way","osmId":33548666,"name":"Golf Negralejo","city":"Rivas Vaciamadrid","region":null,"lat":40.4078,"lon":-3.51327},{"osmType":"node","osmId":9508246945,"name":"Golf Nîmes Campagne","city":null,"region":null,"lat":43.76438,"lon":4.38447},{"osmType":"way","osmId":226069291,"name":"Golf Nuevo Portil","city":"Nuevo Portil, Cartaya","region":null,"lat":37.21709,"lon":-7.06366},{"osmType":"relation","osmId":3330820,"name":"Golf Oliva Nova","city":"Oliva","region":null,"lat":38.89392,"lon":-0.05837},{"osmType":"way","osmId":4519198,"name":"Golf Olivar de la Hinojosa","city":null,"region":null,"lat":40.46602,"lon":-3.60339},{"osmType":"way","osmId":210674518,"name":"Golf Parador de El Saler","city":"El Saler","region":null,"lat":39.31881,"lon":-0.30204},{"osmType":"relation","osmId":3329293,"name":"Golf Park Madrid","city":"Alcobendas","region":null,"lat":40.5174,"lon":-3.65963},{"osmType":"relation","osmId":7935389,"name":"Golf Pitch & Putt Mas Gorombau","city":null,"region":null,"lat":41.8763,"lon":2.24526},{"osmType":"way","osmId":208777735,"name":"Golf Pitch and Putt de Narbonne","city":null,"region":null,"lat":43.1713,"lon":2.99607},{"osmType":"way","osmId":184709022,"name":"Golf Pitch&Putt Platja d'Aro","city":null,"region":null,"lat":41.81842,"lon":3.05394},{"osmType":"relation","osmId":8266231,"name":"Golf Platja de Pals","city":null,"region":null,"lat":41.99355,"lon":3.1952},{"osmType":"way","osmId":150465361,"name":"Golf Pollença","city":"Pollença","region":null,"lat":39.85914,"lon":3.03619},{"osmType":"relation","osmId":19244519,"name":"Golf Resort Montpellier Fontcaude","city":null,"region":null,"lat":43.62773,"lon":3.80774},{"osmType":"way","osmId":101504482,"name":"Golf Resort Salobre Norte","city":null,"region":null,"lat":27.79214,"lon":-15.64845},{"osmType":"way","osmId":101266766,"name":"Golf Resort Salobre Sur","city":null,"region":null,"lat":27.7819,"lon":-15.64499},{"osmType":"way","osmId":23599363,"name":"Golf rústico - Club de Golf Pozuelo","city":null,"region":null,"lat":40.44254,"lon":-3.77654},{"osmType":"relation","osmId":7192793,"name":"Golf Salardú Pitch & Putt","city":"Salardú","region":null,"lat":42.70446,"lon":0.90659},{"osmType":"relation","osmId":7470159,"name":"Golf Sant Feliu","city":null,"region":null,"lat":41.70496,"lon":2.15766},{"osmType":"way","osmId":128190526,"name":"Golf Sant Joan","city":null,"region":null,"lat":41.49859,"lon":2.05396},{"osmType":"relation","osmId":14058614,"name":"Golf Sant Marc–Club de Golf Puigcerdà","city":"Puigcerdà","region":null,"lat":42.41462,"lon":1.92766},{"osmType":"relation","osmId":3333332,"name":"Golf Sant Vicenç de Montalt","city":"Sant Vicenç de Montalt","region":null,"lat":41.57088,"lon":2.50502},{"osmType":"node","osmId":7262202444,"name":"Golf Santa Marina","city":null,"region":null,"lat":43.37567,"lon":-4.35185},{"osmType":"way","osmId":27279169,"name":"Golf Santa Ponça I","city":null,"region":null,"lat":39.51282,"lon":2.49589},{"osmType":"way","osmId":32723004,"name":"Golf Santa Ponça II","city":null,"region":null,"lat":39.49884,"lon":2.48634},{"osmType":"relation","osmId":6728166,"name":"Golf Santa Ponça III","city":null,"region":null,"lat":39.49526,"lon":2.48125},{"osmType":"way","osmId":1316810821,"name":"Golf Santo António / Parque da Floresta","city":"Budens","region":null,"lat":37.08451,"lon":-8.8454},{"osmType":"way","osmId":1239832583,"name":"Golf Shangri-la","city":"Gandarillas","region":null,"lat":43.34578,"lon":-4.42578},{"osmType":"relation","osmId":4639171,"name":"Golf Soldeu","city":null,"region":null,"lat":42.56249,"lon":1.66386},{"osmType":"way","osmId":162429593,"name":"Golf Son Parc Menorca","city":"Es Mercadal","region":null,"lat":40.02117,"lon":4.16078},{"osmType":"relation","osmId":1170115,"name":"Golf Torrequebrada","city":null,"region":null,"lat":36.586,"lon":-4.54976},{"osmType":"relation","osmId":3321429,"name":"Golf Urbanización Porto Avieira","city":null,"region":null,"lat":42.968,"lon":-8.41567},{"osmType":"way","osmId":204800746,"name":"Golf Urgell Pitch & Putt Bellpuig","city":"Bellpuig","region":null,"lat":41.64697,"lon":1.00367},{"osmType":"relation","osmId":4244144,"name":"Golf Valdeluz","city":"Yebes","region":null,"lat":40.58547,"lon":-3.12121},{"osmType":"way","osmId":1080812406,"name":"Golf Valderrey","city":null,"region":null,"lat":41.52934,"lon":-5.77496},{"osmType":"way","osmId":136406738,"name":"Golf Vall d´Or","city":null,"region":null,"lat":39.43278,"lon":3.21922},{"osmType":"relation","osmId":3323987,"name":"Golf Villa Mayor","city":"Villamayor de Armuña","region":null,"lat":40.98676,"lon":-5.71372},{"osmType":"way","osmId":376386524,"name":"Golfe Aldeia dos Capuchos","city":null,"region":null,"lat":38.65021,"lon":-9.22547},{"osmType":"way","osmId":99116334,"name":"Golfe da Quinta do Fojo","city":"Vila Nova de Gaia","region":null,"lat":41.12375,"lon":-8.63829},{"osmType":"way","osmId":238142796,"name":"Golfe de Amarante","city":"Fregim, Amarante","region":null,"lat":41.25637,"lon":-8.11245},{"osmType":"relation","osmId":3243757,"name":"Golfe Quinta da Marinha","city":"Cascais","region":null,"lat":38.70204,"lon":-9.45452},{"osmType":"relation","osmId":7091039,"name":"Granada Club de Golf","city":null,"region":null,"lat":37.11924,"lon":-3.66328},{"osmType":"way","osmId":235062061,"name":"Grand Hotel Callao Pitch & Putt","city":null,"region":null,"lat":28.13322,"lon":-16.77186},{"osmType":"way","osmId":702311528,"name":"Greenlife Golf Driving Range","city":null,"region":null,"lat":36.50997,"lon":-4.78084},{"osmType":"way","osmId":172444896,"name":"Greenlife Golf Marbella","city":"Marbella","region":null,"lat":36.5054,"lon":-4.77943},{"osmType":"way","osmId":1452620781,"name":"Gregal","city":"Jesús Pobre","region":null,"lat":38.80847,"lon":0.06925},{"osmType":"way","osmId":162582465,"name":"Grijota Golf","city":"Grijota","region":null,"lat":42.04531,"lon":-4.57598},{"osmType":"way","osmId":1359325474,"name":"Guardian Bom Susseco Golf","city":"Óbidos","region":null,"lat":39.3814,"lon":-9.24156},{"osmType":"way","osmId":81088635,"name":"Hacienda Riquelme Golf Course","city":null,"region":null,"lat":37.8919,"lon":-0.9679},{"osmType":"way","osmId":169543758,"name":"Hércules Clube de Golf","city":"Arteixo","region":null,"lat":43.26904,"lon":-8.52112},{"osmType":"relation","osmId":3319640,"name":"Hills Course","city":null,"region":null,"lat":41.07351,"lon":1.16501},{"osmType":"way","osmId":468055255,"name":"Hilton Club de Golf","city":null,"region":null,"lat":35.66895,"lon":-5.95415},{"osmType":"way","osmId":234235948,"name":"Hossegor Putting Garden","city":"Soorts-Hossegor","region":null,"lat":43.6605,"lon":-1.43426},{"osmType":"node","osmId":4746791195,"name":"Hotel Milagros Golf","city":null,"region":null,"lat":43.43715,"lon":-3.97222},{"osmType":"way","osmId":283556644,"name":"Hotel Restaurant Mas Gallau Pitch & Putt","city":"Cambrils","region":null,"lat":41.08863,"lon":1.09395},{"osmType":"way","osmId":391775945,"name":"International Club de Golf Jaca","city":null,"region":null,"lat":42.57855,"lon":-0.46271},{"osmType":"way","osmId":532052140,"name":"Irelore golf eskola","city":null,"region":null,"lat":43.02175,"lon":-2.42006},{"osmType":"way","osmId":154575700,"name":"Isla Canela Golf Course","city":"Isla Canela, Ayamonte","region":null,"lat":37.19547,"lon":-7.39116},{"osmType":"relation","osmId":3319450,"name":"Isla del Fraile Pitch & Putt","city":"Águilas","region":null,"lat":37.41851,"lon":-1.55319},{"osmType":"relation","osmId":3296953,"name":"Islantilla Golf Resort","city":"Isla Cristina","region":null,"lat":37.21358,"lon":-7.23495},{"osmType":"way","osmId":129384371,"name":"Izki Golf","city":null,"region":null,"lat":42.66374,"lon":-2.51378},{"osmType":"relation","osmId":13347219,"name":"Jandía Golf Course","city":null,"region":null,"lat":28.06157,"lon":-14.33318},{"osmType":"way","osmId":28262254,"name":"Jarama RACE Club","city":"San Sebastián de los Reyes","region":null,"lat":40.62744,"lon":-3.60155},{"osmType":"way","osmId":202307257,"name":"Justiz Golf","city":"Hondarribia","region":null,"lat":43.37312,"lon":-1.82876},{"osmType":"way","osmId":440859532,"name":"Karakas","city":null,"region":null,"lat":43.29395,"lon":-2.23876},{"osmType":"way","osmId":39507765,"name":"La Almarza","city":null,"region":null,"lat":40.86282,"lon":-4.57315},{"osmType":"way","osmId":36148089,"name":"La Barganiza","city":null,"region":null,"lat":43.43913,"lon":-5.75139},{"osmType":"relation","osmId":3308721,"name":"La Cala Resort","city":"Mijas Costa","region":null,"lat":36.54009,"lon":-4.72304},{"osmType":"way","osmId":652069918,"name":"La Dehesa de Morón","city":null,"region":null,"lat":41.41986,"lon":-2.42387},{"osmType":"relation","osmId":3299445,"name":"La Duquesa Golf & Country Club","city":"Manilva","region":null,"lat":36.3578,"lon":-5.23844},{"osmType":"way","osmId":37468184,"name":"La Envía Golf","city":null,"region":null,"lat":36.83376,"lon":-2.61657},{"osmType":"relation","osmId":20088113,"name":"La Faisanera Golf Segovia","city":"Palazuelos de Eresma","region":null,"lat":40.91557,"lon":-4.05524},{"osmType":"way","osmId":282754140,"name":"La Finca Golf Los Lagos - Campo de Golf","city":null,"region":null,"lat":40.40259,"lon":-3.79974},{"osmType":"way","osmId":190902682,"name":"La Galera","city":"Valladolid","region":null,"lat":41.68013,"lon":-4.75074},{"osmType":"way","osmId":234987843,"name":"La Galiana Campo de Golf","city":"La Barraca de Aguas Vivas","region":null,"lat":39.08142,"lon":-0.3553},{"osmType":"way","osmId":291682602,"name":"La Hacienda Links Golf Resort","city":null,"region":null,"lat":36.24674,"lon":-5.31579},{"osmType":"way","osmId":55617277,"name":"La Junquera","city":null,"region":null,"lat":43.43432,"lon":-3.78002},{"osmType":"way","osmId":293706501,"name":"La Manga Club - West Course","city":"Cartagena","region":null,"lat":37.60049,"lon":-0.81884},{"osmType":"way","osmId":293760345,"name":"La Manga Club North & East Course","city":"Cartagena","region":null,"lat":37.60483,"lon":-0.80102},{"osmType":"way","osmId":226404373,"name":"La Manga Pitch & Putt","city":"Cartagena","region":null,"lat":37.59727,"lon":-0.80663},{"osmType":"relation","osmId":3319596,"name":"La Marquesa Golf en Rojales","city":"Rojales","region":null,"lat":38.08369,"lon":-0.7088},{"osmType":"way","osmId":1381917038,"name":"La Monacilla","city":null,"region":null,"lat":37.28932,"lon":-7.00385},{"osmType":"relation","osmId":3296981,"name":"La Monacilla Golf Club","city":"Aljaraque","region":null,"lat":37.28938,"lon":-7.0041},{"osmType":"relation","osmId":5450006,"name":"La Noria Golf & Resort","city":null,"region":null,"lat":36.5074,"lon":-4.68762},{"osmType":"relation","osmId":1216583,"name":"La Peraleja Golf Resort","city":null,"region":null,"lat":37.87396,"lon":-0.95599},{"osmType":"relation","osmId":3301126,"name":"La Quinta Golf & Country Club","city":"Benahavís","region":null,"lat":36.51369,"lon":-4.99707},{"osmType":"way","osmId":237391514,"name":"La Reserva Golf Club","city":"San Roque","region":null,"lat":36.29466,"lon":-5.32832},{"osmType":"relation","osmId":3299682,"name":"La Resina Golf & Country Club","city":"Guadalmina Alta, Marbella","region":null,"lat":36.46677,"lon":-5.07559},{"osmType":"relation","osmId":16364140,"name":"La Siesta Golf Calahonda","city":"Mijas-Costa","region":null,"lat":36.49892,"lon":-4.72417},{"osmType":"node","osmId":469206933,"name":"La Tercia Golf Resort","city":null,"region":null,"lat":37.862,"lon":-1.0066},{"osmType":"way","osmId":81092046,"name":"La Torre Golf Resort","city":null,"region":null,"lat":37.82003,"lon":-1.003},{"osmType":"way","osmId":88347052,"name":"La Valmuza Golf Resort","city":null,"region":null,"lat":40.90256,"lon":-5.78648},{"osmType":"way","osmId":244158078,"name":"La Zagaleta Country Club - La Zagaleta Course","city":null,"region":null,"lat":36.53239,"lon":-5.02971},{"osmType":"way","osmId":182934084,"name":"Lanzarote Golf Resort","city":null,"region":null,"lat":28.93347,"lon":-13.65435},{"osmType":"way","osmId":32877582,"name":"Larrabea Club de Golf","city":"Legutiano","region":null,"lat":42.96686,"lon":-2.61764},{"osmType":"way","osmId":374409231,"name":"Las Colinas Golf & Country Club","city":null,"region":null,"lat":37.92757,"lon":-0.81022},{"osmType":"relation","osmId":2716680,"name":"Las Minas Golf","city":"Aznalcázar","region":null,"lat":37.29514,"lon":-6.23759},{"osmType":"way","osmId":37722356,"name":"Las Palmeras Golf","city":null,"region":null,"lat":28.12407,"lon":-15.44403},{"osmType":"way","osmId":54947290,"name":"Las Ranillas urban golf","city":null,"region":null,"lat":41.67492,"lon":-0.90348},{"osmType":"relation","osmId":9853502,"name":"Laukariz Golf Klub Zelaia","city":null,"region":null,"lat":43.33058,"lon":-2.84381},{"osmType":"way","osmId":213412144,"name":"Lauro Golf","city":"Alhaurín de la Torre","region":null,"lat":36.65177,"lon":-4.6285},{"osmType":"way","osmId":381444705,"name":"Le Golf d'Aiguelèze","city":null,"region":null,"lat":43.91108,"lon":1.97931},{"osmType":"way","osmId":629164428,"name":"Le Practice de la Corniche","city":null,"region":null,"lat":43.38451,"lon":-1.71822},{"osmType":"way","osmId":1360092163,"name":"Les Greens d'Eugénie","city":null,"region":null,"lat":43.67698,"lon":-0.36171},{"osmType":"way","osmId":210138245,"name":"Lisbon Sports Club","city":"Belas","region":null,"lat":38.7969,"lon":-9.27821},{"osmType":"way","osmId":881028803,"name":"Lizaso Golf Pitch & Putt","city":null,"region":null,"lat":42.96893,"lon":-1.69025},{"osmType":"way","osmId":23839438,"name":"Llebeig","city":"Jesús Pobre","region":null,"lat":38.80545,"lon":0.07044},{"osmType":"way","osmId":133629743,"name":"Lo Romero","city":null,"region":null,"lat":37.88643,"lon":-0.8299},{"osmType":"relation","osmId":4523052,"name":"Lopesan Meloneras Golf","city":null,"region":null,"lat":27.75133,"lon":-15.61949},{"osmType":"relation","osmId":3319459,"name":"Lorca Resort Golf & Spa","city":"Purias","region":null,"lat":37.55145,"lon":-1.62669},{"osmType":"way","osmId":381995172,"name":"Los Balagares Golf","city":null,"region":null,"lat":43.54483,"lon":-5.88898},{"osmType":"way","osmId":222799515,"name":"Los Lagos Golf","city":"Pinseque","region":null,"lat":41.72886,"lon":-1.07474},{"osmType":"relation","osmId":1725567,"name":"Los Moriscos Club de Golf","city":"Motril","region":null,"lat":36.71987,"lon":-3.55869},{"osmType":"relation","osmId":3299800,"name":"Los Naranjos Golf Club","city":"Marbella","region":null,"lat":36.51007,"lon":-4.97927},{"osmType":"way","osmId":192151419,"name":"Lourdes Pyrénées Golf Club","city":null,"region":null,"lat":43.10747,"lon":-0.08833},{"osmType":"relation","osmId":3319641,"name":"Lumine Golf Course","city":"La Pineda","region":null,"lat":41.0829,"lon":1.17008},{"osmType":"way","osmId":97681590,"name":"Magna Marbella Golf","city":"Marbella","region":null,"lat":36.50588,"lon":-4.97852},{"osmType":"way","osmId":98739153,"name":"Maioris","city":"Palma de Mallorca","region":null,"lat":39.44902,"lon":2.76333},{"osmType":"relation","osmId":3335071,"name":"Makila Golf Club","city":null,"region":null,"lat":43.44007,"lon":-1.48616},{"osmType":"relation","osmId":8746972,"name":"Manresa Golf Club","city":null,"region":null,"lat":41.70194,"lon":1.79826},{"osmType":"relation","osmId":3329286,"name":"Mar Menor Golf Resort","city":"Torre Pacheco","region":null,"lat":37.7443,"lon":-0.91716},{"osmType":"way","osmId":139728266,"name":"Marbella Club Golf Resort","city":"Benahavís","region":null,"lat":36.49899,"lon":-5.0566},{"osmType":"relation","osmId":3299714,"name":"Marbella Golf Country Club","city":"Marbella","region":null,"lat":36.51333,"lon":-4.81196},{"osmType":"way","osmId":317874478,"name":"Margas Hotel & Golf","city":"Latas, Sabiñánigo Huesca","region":null,"lat":42.52673,"lon":-0.3394},{"osmType":"relation","osmId":3324010,"name":"Marina Golf Mojácar","city":"Mojácar","region":null,"lat":37.15984,"lon":-1.83346},{"osmType":"relation","osmId":5357090,"name":"Mas Pagès Pitch & Putt","city":"Girona","region":null,"lat":42.11779,"lon":2.87387},{"osmType":"relation","osmId":20675075,"name":"Mas Torrellas","city":null,"region":null,"lat":41.8148,"lon":3.01834},{"osmType":"way","osmId":27509187,"name":"Maspalomas Golf","city":null,"region":null,"lat":27.75128,"lon":-15.5883},{"osmType":"relation","osmId":2992765,"name":"Meaztegi Golf","city":null,"region":null,"lat":43.29097,"lon":-3.06613},{"osmType":"way","osmId":114577114,"name":"Meliá Villaitana","city":null,"region":null,"lat":38.55416,"lon":-0.15078},{"osmType":"relation","osmId":19862389,"name":"Mestral","city":"Jesús Pobre","region":null,"lat":38.81067,"lon":0.06835},{"osmType":"way","osmId":1134076416,"name":"Mini Golfe","city":null,"region":null,"lat":40.1118,"lon":-8.49062},{"osmType":"way","osmId":247401828,"name":"Minigolf","city":null,"region":null,"lat":41.69683,"lon":2.83209},{"osmType":"way","osmId":207351918,"name":"Mirador Lobos Golf","city":null,"region":null,"lat":28.70864,"lon":-13.87488},{"osmType":"relation","osmId":2297099,"name":"Miraflores golf","city":"Mijas Costa","region":null,"lat":36.50187,"lon":-4.70576},{"osmType":"way","osmId":664019473,"name":"Monte Rei Golf Course","city":"Vila Nova de Cacela","region":null,"lat":37.213,"lon":-7.54735},{"osmType":"way","osmId":100654751,"name":"Montealegre Club de Golf","city":"Ourense","region":null,"lat":42.32481,"lon":-7.81845},{"osmType":"way","osmId":240183075,"name":"Montebelo Golfe","city":"Farminhão, Viseu","region":null,"lat":40.60999,"lon":-8.03654},{"osmType":"way","osmId":220296432,"name":"Montenmedio Golf & Country Club","city":"Vejer de la Frontera","region":null,"lat":36.23951,"lon":-5.90691},{"osmType":"relation","osmId":17716885,"name":"Montseny P&P","city":null,"region":null,"lat":41.71443,"lon":2.52261},{"osmType":"relation","osmId":4540080,"name":"Morgado Golf","city":"Portimão","region":null,"lat":37.19179,"lon":-8.56364},{"osmType":"relation","osmId":1216560,"name":"Mosa Trajectum Golf Resort","city":null,"region":null,"lat":37.87104,"lon":-1.09819},{"osmType":"way","osmId":110403161,"name":"Noja Golf","city":null,"region":null,"lat":43.48847,"lon":-3.52395},{"osmType":"way","osmId":50447436,"name":"Norba Club de Golf","city":"Urb. Ceres Golf, Cáceres","region":null,"lat":39.42304,"lon":-6.37868},{"osmType":"way","osmId":28246745,"name":"Nuevo Club de Golf de Madrid","city":"Las Matas-Madrid","region":null,"lat":40.54228,"lon":-3.91755},{"osmType":"relation","osmId":19952109,"name":"Ocean Course","city":null,"region":null,"lat":37.05657,"lon":-8.06832},{"osmType":"relation","osmId":3239956,"name":"Oeiras Golf & Residence","city":null,"region":null,"lat":38.74194,"lon":-9.29575},{"osmType":"way","osmId":240149366,"name":"Oitavos Dunes","city":"Cascais","region":null,"lat":38.70853,"lon":-9.46556},{"osmType":"relation","osmId":3134353,"name":"Onyria Palmares Golf","city":"Palmares","region":null,"lat":37.12594,"lon":-8.63825},{"osmType":"way","osmId":62048975,"name":"Oporto Golf Club","city":"Espinho","region":null,"lat":40.9919,"lon":-8.64343},{"osmType":"relation","osmId":20584686,"name":"P&P Ampolla","city":null,"region":null,"lat":40.78949,"lon":0.67929},{"osmType":"way","osmId":33637256,"name":"P&P Franciac","city":null,"region":null,"lat":41.87231,"lon":2.77155},{"osmType":"way","osmId":872814348,"name":"Paço do Lumiar Clube de Golfe","city":"Lisboa","region":null,"lat":38.78088,"lon":-9.16896},{"osmType":"relation","osmId":3209525,"name":"Palmela Village Golf Course","city":"Quinta do Anjo, Palmela","region":null,"lat":38.57396,"lon":-8.95095},{"osmType":"way","osmId":204958387,"name":"Palmeral Golf Saidia","city":null,"region":null,"lat":35.10395,"lon":-2.30523},{"osmType":"way","osmId":165913033,"name":"Palomarejos Golf","city":null,"region":null,"lat":39.97078,"lon":-4.7897},{"osmType":"way","osmId":170980184,"name":"Par 3 Course","city":null,"region":null,"lat":36.53328,"lon":-4.72071},{"osmType":"way","osmId":155267153,"name":"Parcours de l'Impératrice","city":null,"region":null,"lat":43.50742,"lon":-1.52603},{"osmType":"way","osmId":620891067,"name":"Parraluz Golf","city":null,"region":null,"lat":40.12038,"lon":-6.57592},{"osmType":"way","osmId":34238665,"name":"Pau Golf Club","city":null,"region":null,"lat":43.29534,"lon":-0.39975},{"osmType":"relation","osmId":3239554,"name":"Penha Longa","city":"Linhó, Sintra","region":null,"lat":38.75658,"lon":-9.39908},{"osmType":"relation","osmId":3238135,"name":"Penina Golf & Resort","city":"Portimao","region":null,"lat":37.15901,"lon":-8.58186},{"osmType":"way","osmId":369066655,"name":"Peralada Golf Club","city":null,"region":null,"lat":42.31566,"lon":3.02625},{"osmType":"relation","osmId":3237974,"name":"Pestana Alto Golf","city":"Alvor","region":null,"lat":37.12674,"lon":-8.56664},{"osmType":"way","osmId":1384458718,"name":"Pestana Beloura Golf","city":"Quinta da Beloura I","region":null,"lat":38.76795,"lon":-9.37299},{"osmType":"relation","osmId":1522538,"name":"Pestana Gramacho Golf Course","city":"Carvoeiro","region":null,"lat":37.1263,"lon":-8.49041},{"osmType":"relation","osmId":3238138,"name":"Pestana Silves Golf Course","city":"Silves","region":null,"lat":37.16892,"lon":-8.42067},{"osmType":"relation","osmId":3238096,"name":"Pestana Vale da Pinta Golf Course","city":"Carvoeiro, Lagoa","region":null,"lat":37.13152,"lon":-8.47727},{"osmType":"way","osmId":107196466,"name":"Pestana Vila Sol Golf Course","city":"Vilamoura","region":null,"lat":37.08677,"lon":-8.09334},{"osmType":"way","osmId":238142509,"name":"PGA Aroeira 1 Golf Course","city":"Charneca da Caparica","region":null,"lat":38.57141,"lon":-9.17889},{"osmType":"relation","osmId":3209532,"name":"PGA Aroeira 2 Golf Course","city":"Charneca da Caparica","region":null,"lat":38.57825,"lon":-9.16544},{"osmType":"relation","osmId":3240373,"name":"Pine Cliffs Golf Course","city":"Albufeira","region":null,"lat":37.09269,"lon":-8.17435},{"osmType":"way","osmId":195983824,"name":"Pinheirinho Hyatt Golf & Beach Resort","city":null,"region":null,"lat":38.22814,"lon":-8.75877},{"osmType":"way","osmId":107208466,"name":"Pinheiros Altos Golf Course","city":"Almancil","region":null,"lat":37.04776,"lon":-8.00828},{"osmType":"way","osmId":46523174,"name":"Pitch & Putt","city":null,"region":null,"lat":42.43899,"lon":-2.50009},{"osmType":"way","osmId":103119593,"name":"Pitch & Putt Castelló Empuriabrava","city":"Castelló d'Empúries","region":null,"lat":42.2494,"lon":3.07155},{"osmType":"way","osmId":1017657244,"name":"Pitch & Putt Fornells","city":null,"region":null,"lat":41.92814,"lon":2.82428},{"osmType":"way","osmId":231437078,"name":"Pitch & Putt Gualta","city":"Gualta","region":null,"lat":42.03567,"lon":3.11864},{"osmType":"way","osmId":1024910497,"name":"Pitch & Putt Lleida","city":null,"region":null,"lat":41.67045,"lon":0.64357},{"osmType":"way","osmId":335651972,"name":"Pitch & Putt Palma de Cervelló","city":null,"region":null,"lat":41.40161,"lon":1.9785},{"osmType":"way","osmId":220012574,"name":"Pitch & Putt Portal del Roc","city":null,"region":null,"lat":41.24322,"lon":1.67922},{"osmType":"way","osmId":845807107,"name":"Pitch & Putt Sant Cebrià","city":"Sant Cebrià de Vallalta","region":null,"lat":41.61213,"lon":2.60545},{"osmType":"relation","osmId":3333392,"name":"Pitch & Putt Vallromanes","city":"Vilanova del Vallès","region":null,"lat":41.538,"lon":2.31025},{"osmType":"way","osmId":173073991,"name":"Pitch&Putt Barcelona-Teia","city":null,"region":null,"lat":41.49465,"lon":2.33254},{"osmType":"way","osmId":341013222,"name":"Pitch&Putt La Figuerola","city":null,"region":null,"lat":41.02932,"lon":0.8124},{"osmType":"node","osmId":1773110063,"name":"Plaisance Swin-Golf","city":null,"region":null,"lat":43.61269,"lon":0.0508},{"osmType":"relation","osmId":1627576,"name":"Playitas Golf","city":null,"region":null,"lat":28.23199,"lon":-13.99076},{"osmType":"way","osmId":157056670,"name":"Practice Biarritz le Phare","city":null,"region":null,"lat":43.49087,"lon":-1.54147},{"osmType":"way","osmId":1394447886,"name":"Practice de Golf - US Dax","city":null,"region":null,"lat":43.71192,"lon":-1.06947},{"osmType":"way","osmId":138713561,"name":"Praia D'El Rey Marriott Golf & Beach Resort","city":"Vale de Janelas, Obidos","region":null,"lat":39.38935,"lon":-9.28217},{"osmType":"relation","osmId":7319957,"name":"Private Golf Course","city":null,"region":null,"lat":37.14383,"lon":-7.5847},{"osmType":"node","osmId":8992811375,"name":"Puig Campana Golf","city":null,"region":null,"lat":38.5453,"lon":-0.20796},{"osmType":"relation","osmId":2738804,"name":"Pula Golf","city":null,"region":null,"lat":39.64734,"lon":3.38209},{"osmType":"relation","osmId":3728482,"name":"Quinta das Lágrimas (Pitch & Putt)","city":"Coimbra","region":null,"lat":40.19865,"lon":-8.43348},{"osmType":"way","osmId":1222792478,"name":"Quinta de Cima","city":"Vila Nova de Cacela","region":null,"lat":37.15927,"lon":-7.57317},{"osmType":"way","osmId":321534668,"name":"Quinta de Santo António do Freixo Driving Range","city":null,"region":null,"lat":39.69401,"lon":-8.78194},{"osmType":"relation","osmId":3238167,"name":"Quinta do Lago Laranjal Golf Course","city":"Almancil","region":null,"lat":37.06474,"lon":-7.99961},{"osmType":"relation","osmId":3238797,"name":"Quinta do Lago North Golf Course","city":"Almancil","region":null,"lat":37.05225,"lon":-8.02145},{"osmType":"way","osmId":240113589,"name":"Quinta do Lago South Golf Course","city":"Almancil","region":null,"lat":37.0474,"lon":-8.02222},{"osmType":"relation","osmId":3209531,"name":"Quinta do Peru Golf & Country Club","city":"Quinta do Conde","region":null,"lat":38.53876,"lon":-9.0557},{"osmType":"relation","osmId":12612276,"name":"Quinta do Vale Golf Resort","city":"Castro Marim","region":null,"lat":37.24921,"lon":-7.44566},{"osmType":"way","osmId":594184763,"name":"Rasa de Berbes","city":null,"region":null,"lat":43.46783,"lon":-5.14498},{"osmType":"way","osmId":190518708,"name":"Real Aero Club de Santiago","city":"Piñeiro - Ames","region":null,"lat":42.94922,"lon":-8.63828},{"osmType":"relation","osmId":2147088,"name":"Real Aero Club de Vigo","city":null,"region":null,"lat":42.23179,"lon":-8.63015},{"osmType":"way","osmId":27249377,"name":"Real Club de Golf Campoamor","city":null,"region":null,"lat":37.92963,"lon":-0.77825},{"osmType":"way","osmId":73922417,"name":"Real Club de Golf de Sevilla","city":null,"region":null,"lat":37.35217,"lon":-5.91943},{"osmType":"way","osmId":258648125,"name":"Real Club de Golf de Sotogrande","city":"Sotogrande","region":null,"lat":36.28011,"lon":-5.29194},{"osmType":"relation","osmId":1458990,"name":"Real Club de Golf de Tenerife","city":null,"region":null,"lat":28.48099,"lon":-16.37764},{"osmType":"relation","osmId":2754990,"name":"Real Club de Golf el Prat","city":"Terrassa","region":null,"lat":41.56786,"lon":2.05722},{"osmType":"relation","osmId":3300481,"name":"Real Club de Golf Guadalmina","city":"San Pedro de Alcántara","region":null,"lat":36.47555,"lon":-5.0026},{"osmType":"way","osmId":61456526,"name":"Real Club de Golf La Herrería","city":null,"region":null,"lat":40.58059,"lon":-4.15815},{"osmType":"way","osmId":97671239,"name":"Real Club de Golf Las Brisas","city":"Marbella","region":null,"lat":36.50542,"lon":-4.96894},{"osmType":"way","osmId":138316442,"name":"Real Club de Golf Las Palmas","city":null,"region":null,"lat":28.03105,"lon":-15.46293},{"osmType":"way","osmId":4378214,"name":"Real Club de la Puerta de Hierro","city":null,"region":null,"lat":40.46429,"lon":-3.73978},{"osmType":"relation","osmId":3332836,"name":"Real Golf Club de San Sebastián","city":"Hondarribia","region":null,"lat":43.34039,"lon":-1.82892},{"osmType":"way","osmId":27251911,"name":"Real Golf Club de Zarautz","city":null,"region":null,"lat":43.28852,"lon":-2.157},{"osmType":"way","osmId":111211595,"name":"Real Golf Club Oyambre","city":null,"region":null,"lat":43.38798,"lon":-4.32959},{"osmType":"way","osmId":55616756,"name":"Real Golf de Pedreña","city":null,"region":null,"lat":43.44352,"lon":-3.76085},{"osmType":"way","osmId":211691537,"name":"Real Nuevo Club de Golf Basozabal","city":null,"region":null,"lat":43.28567,"lon":-1.96429},{"osmType":"way","osmId":41931800,"name":"Real Sociedad de Golf de Neguri","city":null,"region":null,"lat":43.3738,"lon":-3.0267},{"osmType":"way","osmId":27867330,"name":"Real Sociedad Hípica Española Club de Campo","city":"San Sebastian de los Reyes","region":null,"lat":40.60769,"lon":-3.59202},{"osmType":"relation","osmId":13936370,"name":"Reial Club de Golf de la Cerdanya","city":null,"region":null,"lat":42.41327,"lon":1.90371},{"osmType":"relation","osmId":6775065,"name":"Reial Golf de Bendinat","city":"Calvià","region":null,"lat":39.54547,"lon":2.58305},{"osmType":"way","osmId":28243998,"name":"Retamares Casino Club de Golf","city":"Valdeolmos-Alalpardo","region":null,"lat":40.60909,"lon":-3.46809},{"osmType":"way","osmId":217562754,"name":"Ribagolfe (Course I + II)","city":"Samora Correia","region":null,"lat":38.82122,"lon":-8.74264},{"osmType":"way","osmId":87521367,"name":"Riocerezo","city":null,"region":null,"lat":42.41757,"lon":-3.5891},{"osmType":"way","osmId":90889948,"name":"Rioja Alta","city":null,"region":null,"lat":42.41536,"lon":-2.87834},{"osmType":"way","osmId":663038258,"name":"Robinson Club Quinta da Ria","city":"Vila Nova de Cacela","region":null,"lat":37.15497,"lon":-7.5657},{"osmType":"way","osmId":139883022,"name":"Roc 3 Pitch&Putt","city":"Santa Coloma de Cervelló","region":null,"lat":41.37766,"lon":2.01718},{"osmType":"relation","osmId":16201357,"name":"Rota Club de Golf","city":null,"region":null,"lat":36.63215,"lon":-6.3536},{"osmType":"way","osmId":48659382,"name":"Royal Club Golf de Tanger","city":null,"region":null,"lat":35.77287,"lon":-5.84843},{"osmType":"way","osmId":261535829,"name":"Royal Course","city":null,"region":null,"lat":37.05144,"lon":-8.06321},{"osmType":"relation","osmId":4180716,"name":"Royal Óbidos Golf Course","city":null,"region":null,"lat":39.40812,"lon":-9.2425},{"osmType":"way","osmId":107825044,"name":"Saldaña Golf","city":null,"region":null,"lat":42.2694,"lon":-3.68856},{"osmType":"relation","osmId":1523440,"name":"Salgados Golf Course","city":"Albufeira","region":null,"lat":37.09591,"lon":-8.32548},{"osmType":"way","osmId":120233234,"name":"San Juan de Lechedo","city":null,"region":null,"lat":42.95801,"lon":-3.54217},{"osmType":"relation","osmId":3517517,"name":"San Lorenzo Golf Course","city":"Almancil","region":null,"lat":37.03118,"lon":-8.01268},{"osmType":"way","osmId":237391517,"name":"San Roque Club","city":"San Roque","region":null,"lat":36.26754,"lon":-5.33381},{"osmType":"relation","osmId":3297010,"name":"Sanlúcar Club de Golf","city":"Sanlúcar de Barrameda","region":null,"lat":36.79092,"lon":-6.31994},{"osmType":"relation","osmId":3299716,"name":"Santa Clara Golf Club Marbella","city":"Marbella","region":null,"lat":36.51087,"lon":-4.82447},{"osmType":"relation","osmId":3310266,"name":"Santa Clara Golf Granada","city":"Villa de Otura","region":null,"lat":37.07554,"lon":-3.63372},{"osmType":"relation","osmId":1216554,"name":"Santa Elena Golf Club","city":null,"region":null,"lat":37.75615,"lon":-1.19436},{"osmType":"way","osmId":172443763,"name":"Santa María Golf & Country Club","city":"Marbella","region":null,"lat":36.50992,"lon":-4.76969},{"osmType":"way","osmId":171834521,"name":"Santana Golf & Country Club","city":"Mijas Costa","region":null,"lat":36.54351,"lon":-4.70001},{"osmType":"way","osmId":222460702,"name":"Santo Estevão Golfe","city":"Santo Estêvão, Benavente","region":null,"lat":38.9074,"lon":-8.73572},{"osmType":"way","osmId":155189991,"name":"Seminario Urban Golf","city":null,"region":null,"lat":42.84951,"lon":-2.69227},{"osmType":"relation","osmId":3330823,"name":"Señorío de Illescas Club de Golf","city":"Illescas","region":null,"lat":40.15265,"lon":-3.84493},{"osmType":"node","osmId":1243069584,"name":"Señorío de Zuasti","city":"Zuasti","region":null,"lat":42.85224,"lon":-1.74756},{"osmType":"way","osmId":130569838,"name":"Serena Golf","city":null,"region":null,"lat":37.72934,"lon":-0.86751},{"osmType":"way","osmId":297353455,"name":"Sherry Golf Jerez","city":null,"region":null,"lat":36.65905,"lon":-6.15628},{"osmType":"relation","osmId":3333388,"name":"Sierra Cortina Pitch & Putt","city":"Finestrat","region":null,"lat":38.54538,"lon":-0.17356},{"osmType":"relation","osmId":1216582,"name":"Sierra Golf Resort","city":null,"region":null,"lat":37.86528,"lon":-0.98331},{"osmType":"way","osmId":107435837,"name":"Sotoverde Golf","city":null,"region":null,"lat":41.61859,"lon":-4.80673},{"osmType":"way","osmId":1165605014,"name":"Stadium Course at Camiral Golf & Wellness","city":"Caldes de Malavella","region":null,"lat":41.8529,"lon":2.76324},{"osmType":"way","osmId":42587006,"name":"T Golf Calvia","city":null,"region":null,"lat":39.49207,"lon":2.51237},{"osmType":"way","osmId":108783334,"name":"T Golf Palma Puntiro","city":null,"region":null,"lat":39.58603,"lon":2.78583},{"osmType":"way","osmId":363643831,"name":"Talayuela Golf","city":null,"region":null,"lat":39.99856,"lon":-5.58976},{"osmType":"way","osmId":279838842,"name":"Taradell Club de Golf","city":null,"region":null,"lat":41.86506,"lon":2.27709},{"osmType":"way","osmId":127838784,"name":"Tecina Golf","city":null,"region":null,"lat":28.03804,"lon":-17.19032},{"osmType":"way","osmId":26251358,"name":"Terrain de Golf","city":null,"region":null,"lat":36.76872,"lon":2.99655},{"osmType":"way","osmId":243993148,"name":"The Pine Trees","city":null,"region":null,"lat":36.27267,"lon":-5.34328},{"osmType":"node","osmId":12896175652,"name":"The Range golf lessons","city":null,"region":null,"lat":36.51023,"lon":-4.9526},{"osmType":"way","osmId":110747903,"name":"Torremirona Golf Course","city":null,"region":null,"lat":42.23291,"lon":2.87106},{"osmType":"way","osmId":186499845,"name":"Torrijos Golf - Campo de Golf Pablo Hernández","city":"Novés","region":null,"lat":40.00979,"lon":-4.26534},{"osmType":"way","osmId":1165603948,"name":"Tour Course at Camiral Golf & Wellness","city":"Caldes de Malavella","region":null,"lat":41.85656,"lon":2.76314},{"osmType":"way","osmId":244108926,"name":"Tramores Golf","city":"Marbella","region":null,"lat":36.47837,"lon":-5.04565},{"osmType":"relation","osmId":9714146,"name":"Troia Golf Course","city":"Carvalhal GD","region":null,"lat":38.47921,"lon":-8.89196},{"osmType":"way","osmId":234544728,"name":"Ugolf Toulouse Lou verdaï","city":null,"region":null,"lat":43.51967,"lon":1.37091},{"osmType":"way","osmId":147135897,"name":"Ultzamako Golf Kluba","city":null,"region":null,"lat":42.96193,"lon":-1.66885},{"osmType":"way","osmId":81088632,"name":"United Golf Resort","city":null,"region":null,"lat":37.86494,"lon":-1.01008},{"osmType":"way","osmId":497712962,"name":"Urduña Pitch & Putt","city":null,"region":null,"lat":43.00629,"lon":-3.00021},{"osmType":"way","osmId":1165087757,"name":"Urnieta Pitch & Putt","city":null,"region":null,"lat":43.23136,"lon":-1.98557},{"osmType":"relation","osmId":16848020,"name":"Valdorros","city":null,"region":null,"lat":42.17096,"lon":-3.72276},{"osmType":"way","osmId":491957967,"name":"Vale de Milho Golf","city":"Carvoeiro","region":null,"lat":37.09588,"lon":-8.44682},{"osmType":"relation","osmId":3511048,"name":"Vale do Lobo","city":"Almancil","region":null,"lat":37.0538,"lon":-8.06036},{"osmType":"way","osmId":446515183,"name":"Vale Pisão Golfe","city":"Água Longa Santo Tirso","region":null,"lat":41.27747,"lon":-8.50457},{"osmType":"way","osmId":334648076,"name":"Vall d'Ordino Golf Club","city":"La Cortinada","region":null,"lat":42.57301,"lon":1.52089},{"osmType":"relation","osmId":3319413,"name":"Valle del Este Golf Resort","city":"Vera","region":null,"lat":37.20185,"lon":-1.89305},{"osmType":"relation","osmId":3299672,"name":"Valle Romano Golf & Resort","city":"Estepona","region":null,"lat":36.4277,"lon":-5.19541},{"osmType":"relation","osmId":18016683,"name":"Vallès Pitch & Putt & Driving Range","city":null,"region":null,"lat":41.55601,"lon":2.06356},{"osmType":"relation","osmId":3239954,"name":"Vidago Palace Hotel Golf","city":"Vidago","region":null,"lat":41.62529,"lon":-7.57415},{"osmType":"way","osmId":222567474,"name":"Vila Monte Golf Course","city":"Moncarapacho","region":null,"lat":37.09824,"lon":-7.79456},{"osmType":"way","osmId":183417445,"name":"Villa Nueva Golf Resort","city":"Puerto Real","region":null,"lat":36.50428,"lon":-6.13367},{"osmType":"way","osmId":107218749,"name":"Villamoura Driving Range & Golf Academy","city":"Vilamoura","region":null,"lat":37.10818,"lon":-8.11853},{"osmType":"way","osmId":39817579,"name":"Villaviciosa Golf","city":"Villaviciosa","region":null,"lat":43.48859,"lon":-5.45315},{"osmType":"relation","osmId":9927357,"name":"Vimeiro Golf Club","city":"Torres Vedras","region":null,"lat":39.17777,"lon":-9.35193},{"osmType":"way","osmId":162444207,"name":"Vista Hermosa Club de Golf","city":"El Puerto de Santa María","region":null,"lat":36.58871,"lon":-6.25832},{"osmType":"relation","osmId":3333329,"name":"Vistabella Golf","city":"Orihuela","region":null,"lat":38.04048,"lon":-0.82238},{"osmType":"relation","osmId":12104547,"name":"West Cliffs Golf Course","city":"Vau","region":null,"lat":39.41473,"lon":-9.24449},{"osmType":"way","osmId":238423930,"name":"Zona de Cross","city":null,"region":null,"lat":40.4738,"lon":-3.93878},{"osmType":"way","osmId":509263220,"name":"Zuiako golf-zelaia","city":null,"region":null,"lat":42.96799,"lon":-2.86828}]